var dock_locations = {
"type": "FeatureCollection",
"crs": { "type": "name", "properties": { "name": "urn:ogc:def:crs:OGC:1.3:CRS84" } },
"features": [
{ "type": "Feature", "properties": { "OBJECTID": 180380858, "ID": 250, "ADDRESS": "Rhode Island Ave & V St NE", "TERMINAL_N": "31513", "LATITUDE": 38.918155, "LONGITUDE": -77.004746, "INSTALLED": "YES", "LOCKED": "NO", "INSTALL_DA": null, "REMOVAL_DA": null, "TEMPORARY_": "NO", "NUMBER_OF_": 8, "NUMBER_O_1": 11, "X": 399588.41839449998, "Y": 138920.66602169999, "SE_ANNO_CA": null }, "geometry": { "type": "Point", "coordinates": [ -77.004748286349155, 38.918162791453007 ] } },
{ "type": "Feature", "properties": { "OBJECTID": 180380859, "ID": 251, "ADDRESS": "Constitution Ave & 2nd St NW\/DOL", "TERMINAL_N": "31271", "LATITUDE": 38.892275, "LONGITUDE": -77.013917, "INSTALLED": "YES", "LOCKED": "NO", "INSTALL_DA": null, "REMOVAL_DA": null, "TEMPORARY_": "NO", "NUMBER_OF_": 17, "NUMBER_O_1": 9, "X": 398792.65490730002, "Y": 136047.85718073, "SE_ANNO_CA": null }, "geometry": { "type": "Point", "coordinates": [ -77.013919287052175, 38.892282786148989 ] } },
{ "type": "Feature", "properties": { "OBJECTID": 180380860, "ID": 252, "ADDRESS": "Washington & Independence Ave SW\/HHS", "TERMINAL_N": "31272", "LATITUDE": 38.886978, "LONGITUDE": -77.013769, "INSTALLED": "YES", "LOCKED": "NO", "INSTALL_DA": null, "REMOVAL_DA": null, "TEMPORARY_": "NO", "NUMBER_OF_": 17, "NUMBER_O_1": 14, "X": 398805.40570037998, "Y": 135459.84686255999, "SE_ANNO_CA": null }, "geometry": { "type": "Point", "coordinates": [ -77.013771287179466, 38.886985785137036 ] } },
{ "type": "Feature", "properties": { "OBJECTID": 180380861, "ID": 253, "ADDRESS": "Independence Ave & L'Enfant Plaza SW\/DOE", "TERMINAL_N": "31633", "LATITUDE": 38.887312, "LONGITUDE": -77.025762, "INSTALLED": "YES", "LOCKED": "NO", "INSTALL_DA": null, "REMOVAL_DA": null, "TEMPORARY_": "NO", "NUMBER_OF_": 6, "NUMBER_O_1": 9, "X": 397764.90711108001, "Y": 135497.14874174001, "SE_ANNO_CA": null }, "geometry": { "type": "Point", "coordinates": [ -77.025764290625176, 38.887319784719814 ] } },
{ "type": "Feature", "properties": { "OBJECTID": 180380862, "ID": 254, "ADDRESS": "Hamlin & 7th St NE", "TERMINAL_N": "31514", "LATITUDE": 38.927497, "LONGITUDE": -76.997194, "INSTALLED": "YES", "LOCKED": "NO", "INSTALL_DA": null, "REMOVAL_DA": null, "TEMPORARY_": "NO", "NUMBER_OF_": 8, "NUMBER_O_1": 6, "X": 400243.30946071999, "Y": 139957.7002703, "SE_ANNO_CA": null }, "geometry": { "type": "Point", "coordinates": [ -76.997196284610737, 38.927504793630291 ] } },
{ "type": "Feature", "properties": { "OBJECTID": 180380863, "ID": 255, "ADDRESS": "Columbia Pike & S Walter Reed Dr", "TERMINAL_N": "31067", "LATITUDE": 38.862478, "LONGITUDE": -77.086599, "INSTALLED": "YES", "LOCKED": "NO", "INSTALL_DA": null, "REMOVAL_DA": null, "TEMPORARY_": "NO", "NUMBER_OF_": 4, "NUMBER_O_1": 8, "X": 392484.11792553001, "Y": 132743.63730167001, "SE_ANNO_CA": null }, "geometry": { "type": "Point", "coordinates": [ -77.086601308069362, 38.862485777463689 ] } },
{ "type": "Feature", "properties": { "OBJECTID": 180380864, "ID": 256, "ADDRESS": "Columbia Pike & S Dinwiddie St \/ Arlington Mill Community Center", "TERMINAL_N": "31068", "LATITUDE": 38.856319, "LONGITUDE": -77.11153, "INSTALLED": "YES", "LOCKED": "NO", "INSTALL_DA": null, "REMOVAL_DA": null, "TEMPORARY_": "NO", "NUMBER_OF_": 12, "NUMBER_O_1": 3, "X": 390319.53509636002, "Y": 132062.29229881, "SE_ANNO_CA": null }, "geometry": { "type": "Point", "coordinates": [ -77.111532315259126, 38.856326775316205 ] } },
{ "type": "Feature", "properties": { "OBJECTID": 180380865, "ID": 257, "ADDRESS": "Pershing & N George Mason Dr", "TERMINAL_N": "31069", "LATITUDE": 38.871822, "LONGITUDE": -77.107906, "INSTALLED": "YES", "LOCKED": "NO", "INSTALL_DA": null, "REMOVAL_DA": null, "TEMPORARY_": "NO", "NUMBER_OF_": 7, "NUMBER_O_1": 4, "X": 390636.12134369998, "Y": 133782.85958270001, "SE_ANNO_CA": null }, "geometry": { "type": "Point", "coordinates": [ -77.107908315768, 38.871829778273003 ] } },
{ "type": "Feature", "properties": { "OBJECTID": 180380866, "ID": 258, "ADDRESS": "Fenton St & New York Ave", "TERMINAL_N": "32001", "LATITUDE": 38.985404, "LONGITUDE": -77.023082, "INSTALLED": "YES", "LOCKED": "NO", "INSTALL_DA": null, "REMOVAL_DA": null, "TEMPORARY_": "NO", "NUMBER_OF_": 2, "NUMBER_O_1": 13, "X": 398000.17527578003, "Y": 146386.15892257, "SE_ANNO_CA": null }, "geometry": { "type": "Point", "coordinates": [ -77.023084296251994, 38.985411804643633 ] } },
{ "type": "Feature", "properties": { "OBJECTID": 180380867, "ID": 259, "ADDRESS": "Bethesda Ave & Arlington Rd", "TERMINAL_N": "32002", "LATITUDE": 38.981103, "LONGITUDE": -77.097426, "INSTALLED": "YES", "LOCKED": "NO", "INSTALL_DA": null, "REMOVAL_DA": null, "TEMPORARY_": "NO", "NUMBER_OF_": 6, "NUMBER_O_1": 13, "X": 391558.50228853, "Y": 145912.95751583, "SE_ANNO_CA": null }, "geometry": { "type": "Point", "coordinates": [ -77.097428318571389, 38.981110800718533 ] } },
{ "type": "Feature", "properties": { "OBJECTID": 180380868, "ID": 260, "ADDRESS": "Montgomery Ave & Waverly St", "TERMINAL_N": "32003", "LATITUDE": 38.983838, "LONGITUDE": -77.09221, "INSTALLED": "YES", "LOCKED": "NO", "INSTALL_DA": null, "REMOVAL_DA": null, "TEMPORARY_": "NO", "NUMBER_OF_": 2, "NUMBER_O_1": 9, "X": 392010.75030161999, "Y": 146216.09966891, "SE_ANNO_CA": null }, "geometry": { "type": "Point", "coordinates": [ -77.092212317266643, 38.98384580177418 ] } },
{ "type": "Feature", "properties": { "OBJECTID": 180380869, "ID": 261, "ADDRESS": "Fallsgrove Blvd & Fallsgrove Dr", "TERMINAL_N": "32004", "LATITUDE": 39.096312, "LONGITUDE": -77.192672, "INSTALLED": "YES", "LOCKED": "NO", "INSTALL_DA": null, "REMOVAL_DA": null, "TEMPORARY_": "NO", "NUMBER_OF_": 5, "NUMBER_O_1": 14, "X": 383332.89363762998, "Y": 158715.52157618999, "SE_ANNO_CA": null }, "geometry": { "type": "Point", "coordinates": [ -77.192674355783396, 39.096319820296024 ] } },
{ "type": "Feature", "properties": { "OBJECTID": 180380870, "ID": 262, "ADDRESS": "Traville Gateway Dr & Gudelsky Dr", "TERMINAL_N": "32005", "LATITUDE": 39.093783, "LONGITUDE": -77.202501, "INSTALLED": "YES", "LOCKED": "NO", "INSTALL_DA": null, "REMOVAL_DA": null, "TEMPORARY_": "NO", "NUMBER_OF_": 6, "NUMBER_O_1": 13, "X": 382482.01381243998, "Y": 158436.61187287999, "SE_ANNO_CA": null }, "geometry": { "type": "Point", "coordinates": [ -77.202503358541648, 39.093790819560631 ] } },
{ "type": "Feature", "properties": { "OBJECTID": 180380871, "ID": 263, "ADDRESS": "Norfolk Ave & Fairmont St", "TERMINAL_N": "32000", "LATITUDE": 38.988562, "LONGITUDE": -77.096539, "INSTALLED": "YES", "LOCKED": "NO", "INSTALL_DA": null, "REMOVAL_DA": null, "TEMPORARY_": "NO", "NUMBER_OF_": 5, "NUMBER_O_1": 6, "X": 391636.23222070001, "Y": 146740.89768535001, "SE_ANNO_CA": null }, "geometry": { "type": "Point", "coordinates": [ -77.096541318692744, 38.988569802414311 ] } },
{ "type": "Feature", "properties": { "OBJECTID": 180380872, "ID": 264, "ADDRESS": "E Montgomery Ave & Maryland Ave", "TERMINAL_N": "32007", "LATITUDE": 39.084125, "LONGITUDE": -77.151291, "INSTALLED": "YES", "LOCKED": "NO", "INSTALL_DA": null, "REMOVAL_DA": null, "TEMPORARY_": "NO", "NUMBER_OF_": 5, "NUMBER_O_1": 10, "X": 386910.31438668998, "Y": 157355.87132814, "SE_ANNO_CA": null }, "geometry": { "type": "Point", "coordinates": [ -77.151293342124475, 39.084132819394036 ] } },
{ "type": "Feature", "properties": { "OBJECTID": 180380873, "ID": 265, "ADDRESS": "Cordell & Norfolk Ave", "TERMINAL_N": "32008", "LATITUDE": 38.98954, "LONGITUDE": -77.098029, "INSTALLED": "YES", "LOCKED": "NO", "INSTALL_DA": null, "REMOVAL_DA": null, "TEMPORARY_": "NO", "NUMBER_OF_": 5, "NUMBER_O_1": 6, "X": 391507.26098283002, "Y": 146849.60289104999, "SE_ANNO_CA": null }, "geometry": { "type": "Point", "coordinates": [ -77.098031319356863, 38.989547802391158 ] } },
{ "type": "Feature", "properties": { "OBJECTID": 180380874, "ID": 266, "ADDRESS": "Frederick Ave & Horners Ln", "TERMINAL_N": "32009", "LATITUDE": 39.094772, "LONGITUDE": -77.145213, "INSTALLED": "YES", "LOCKED": "NO", "INSTALL_DA": null, "REMOVAL_DA": null, "TEMPORARY_": "NO", "NUMBER_OF_": 4, "NUMBER_O_1": 7, "X": 387438.06215383997, "Y": 158536.96474703, "SE_ANNO_CA": null }, "geometry": { "type": "Point", "coordinates": [ -77.14521534108971, 39.094779821926181 ] } },
{ "type": "Feature", "properties": { "OBJECTID": 180380875, "ID": 267, "ADDRESS": "Philadelphia & Maple Ave", "TERMINAL_N": "32010", "LATITUDE": 38.98128, "LONGITUDE": -77.011336, "INSTALLED": "YES", "LOCKED": "NO", "INSTALL_DA": null, "REMOVAL_DA": null, "TEMPORARY_": "NO", "NUMBER_OF_": 8, "NUMBER_O_1": 7, "X": 399017.79198301001, "Y": 145928.16270610999, "SE_ANNO_CA": null }, "geometry": { "type": "Point", "coordinates": [ -77.011338291845405, 38.981287803950615 ] } },
{ "type": "Feature", "properties": { "OBJECTID": 180380876, "ID": 268, "ADDRESS": "Maple & Ritchie Ave", "TERMINAL_N": "32011", "LATITUDE": 38.983627, "LONGITUDE": -77.006311, "INSTALLED": "YES", "LOCKED": "NO", "INSTALL_DA": null, "REMOVAL_DA": null, "TEMPORARY_": "NO", "NUMBER_OF_": 9, "NUMBER_O_1": 10, "X": 399453.20125046, "Y": 146188.66055368001, "SE_ANNO_CA": null }, "geometry": { "type": "Point", "coordinates": [ -77.00631329062513, 38.983634804857878 ] } },
{ "type": "Feature", "properties": { "OBJECTID": 180380877, "ID": 269, "ADDRESS": "Silver Spring Metro\/Colesville Rd & Wayne Ave", "TERMINAL_N": "32012", "LATITUDE": 38.99521, "LONGITUDE": -77.02918, "INSTALLED": "YES", "LOCKED": "NO", "INSTALL_DA": null, "REMOVAL_DA": null, "TEMPORARY_": "NO", "NUMBER_OF_": 7, "NUMBER_O_1": 12, "X": 397472.19246231002, "Y": 147474.87366524999, "SE_ANNO_CA": null }, "geometry": { "type": "Point", "coordinates": [ -77.02918229874291, 38.995217806454747 ] } },
{ "type": "Feature", "properties": { "OBJECTID": 180380878, "ID": 270, "ADDRESS": "Montgomery & East Ln", "TERMINAL_N": "32013", "LATITUDE": 38.983525, "LONGITUDE": -77.095367, "INSTALLED": "YES", "LOCKED": "NO", "INSTALL_DA": null, "REMOVAL_DA": null, "TEMPORARY_": "NO", "NUMBER_OF_": 4, "NUMBER_O_1": 7, "X": 391737.18561936001, "Y": 146181.63464028001, "SE_ANNO_CA": null }, "geometry": { "type": "Point", "coordinates": [ -77.095369318290722, 38.983532801287708 ] } },
{ "type": "Feature", "properties": { "OBJECTID": 180380879, "ID": 271, "ADDRESS": "Friendship Hts Metro\/Wisconsin Ave & Wisconsin Cir", "TERMINAL_N": "32014", "LATITUDE": 38.961763, "LONGITUDE": -77.085998, "INSTALLED": "YES", "LOCKED": "NO", "INSTALL_DA": null, "REMOVAL_DA": null, "TEMPORARY_": "NO", "NUMBER_OF_": 8, "NUMBER_O_1": 10, "X": 392546.66110808001, "Y": 143765.03951761001, "SE_ANNO_CA": null }, "geometry": { "type": "Point", "coordinates": [ -77.086000313905089, 38.961770797238572 ] } },
{ "type": "Feature", "properties": { "OBJECTID": 180380880, "ID": 272, "ADDRESS": "14th & Belmont St NW", "TERMINAL_N": "31119", "LATITUDE": 38.921074, "LONGITUDE": -77.031887, "INSTALLED": "YES", "LOCKED": "NO", "INSTALL_DA": null, "REMOVAL_DA": null, "TEMPORARY_": "NO", "NUMBER_OF_": 7, "NUMBER_O_1": 8, "X": 397234.81559000001, "Y": 139245.17181709001, "SE_ANNO_CA": null }, "geometry": { "type": "Point", "coordinates": [ -77.031889295049567, 38.921081791182878 ] } },
{ "type": "Feature", "properties": { "OBJECTID": 180380881, "ID": 273, "ADDRESS": "3rd & Tingey St SE", "TERMINAL_N": "31634", "LATITUDE": 38.87501, "LONGITUDE": -77.0024, "INSTALLED": "YES", "LOCKED": "NO", "INSTALL_DA": null, "REMOVAL_DA": null, "TEMPORARY_": "NO", "NUMBER_OF_": 9, "NUMBER_O_1": 10, "X": 399791.74179325002, "Y": 134131.22002199999, "SE_ANNO_CA": null }, "geometry": { "type": "Point", "coordinates": [ -77.002402282539492, 38.875017782835556 ] } },
{ "type": "Feature", "properties": { "OBJECTID": 180380882, "ID": 274, "ADDRESS": "10th & Florida Ave NW", "TERMINAL_N": "31120", "LATITUDE": 38.920387, "LONGITUDE": -77.025672, "INSTALLED": "YES", "LOCKED": "NO", "INSTALL_DA": null, "REMOVAL_DA": null, "TEMPORARY_": "NO", "NUMBER_OF_": 6, "NUMBER_O_1": 13, "X": 397773.74796633999, "Y": 139168.73911508999, "SE_ANNO_CA": null }, "geometry": { "type": "Point", "coordinates": [ -77.025674293110697, 38.920394791407062 ] } },
{ "type": "Feature", "properties": { "OBJECTID": 180380883, "ID": 275, "ADDRESS": "Potomac Ave & 8th St SE", "TERMINAL_N": "31635", "LATITUDE": 38.876737, "LONGITUDE": -76.994468, "INSTALLED": "YES", "LOCKED": "NO", "INSTALL_DA": null, "REMOVAL_DA": null, "TEMPORARY_": "NO", "NUMBER_OF_": 5, "NUMBER_O_1": 10, "X": 400480.02354885999, "Y": 134322.94186106999, "SE_ANNO_CA": null }, "geometry": { "type": "Point", "coordinates": [ -76.994470280239483, 38.876744783802941 ] } },
{ "type": "Feature", "properties": { "OBJECTID": 180380884, "ID": 276, "ADDRESS": "Crabbs Branch Way & Redland Rd", "TERMINAL_N": "32015", "LATITUDE": 39.120045, "LONGITUDE": -77.156985, "INSTALLED": "YES", "LOCKED": "NO", "INSTALL_DA": null, "REMOVAL_DA": null, "TEMPORARY_": "NO", "NUMBER_OF_": 10, "NUMBER_O_1": 5, "X": 386424.52768957999, "Y": 161344.27440776001, "SE_ANNO_CA": null }, "geometry": { "type": "Point", "coordinates": [ -77.156987346018482, 39.120052826791778 ] } },
{ "type": "Feature", "properties": { "OBJECTID": 180380885, "ID": 277, "ADDRESS": "Fallsgrove Dr & W Montgomery Ave", "TERMINAL_N": "32016", "LATITUDE": 39.099376, "LONGITUDE": -77.188014, "INSTALLED": "YES", "LOCKED": "NO", "INSTALL_DA": null, "REMOVAL_DA": null, "TEMPORARY_": "NO", "NUMBER_OF_": 10, "NUMBER_O_1": 5, "X": 383736.53425668, "Y": 159054.82333901001, "SE_ANNO_CA": null }, "geometry": { "type": "Point", "coordinates": [ -77.18801635445368, 39.099383820970679 ] } },
{ "type": "Feature", "properties": { "OBJECTID": 180380886, "ID": 278, "ADDRESS": "Monroe St & Monroe Pl", "TERMINAL_N": "32017", "LATITUDE": 39.083673, "LONGITUDE": -77.149162, "INSTALLED": "YES", "LOCKED": "NO", "INSTALL_DA": null, "REMOVAL_DA": null, "TEMPORARY_": "NO", "NUMBER_OF_": 5, "NUMBER_O_1": 10, "X": 387094.43314867001, "Y": 157305.39073509999, "SE_ANNO_CA": null }, "geometry": { "type": "Point", "coordinates": [ -77.14916434157216, 39.08368081965844 ] } },
{ "type": "Feature", "properties": { "OBJECTID": 180380887, "ID": 279, "ADDRESS": "Needwood Rd & Eagles Head Ct", "TERMINAL_N": "32018", "LATITUDE": 39.123513, "LONGITUDE": -77.15741, "INSTALLED": "YES", "LOCKED": "NO", "INSTALL_DA": null, "REMOVAL_DA": null, "TEMPORARY_": "NO", "NUMBER_OF_": 7, "NUMBER_O_1": 8, "X": 386388.43917457998, "Y": 161729.3311025, "SE_ANNO_CA": null }, "geometry": { "type": "Point", "coordinates": [ -77.157412346192743, 39.123520827405841 ] } },
{ "type": "Feature", "properties": { "OBJECTID": 180380888, "ID": 280, "ADDRESS": "East West Hwy & Blair Mill Rd", "TERMINAL_N": "32019", "LATITUDE": 38.990249, "LONGITUDE": -77.02935, "INSTALLED": "YES", "LOCKED": "NO", "INSTALL_DA": null, "REMOVAL_DA": null, "TEMPORARY_": "NO", "NUMBER_OF_": 6, "NUMBER_O_1": 9, "X": 397457.28862707998, "Y": 146924.15777925999, "SE_ANNO_CA": null }, "geometry": { "type": "Point", "coordinates": [ -77.029352298228559, 38.990256804986238 ] } },
{ "type": "Feature", "properties": { "OBJECTID": 180380889, "ID": 281, "ADDRESS": "Crabbs Branch Way & Calhoun Pl", "TERMINAL_N": "32020", "LATITUDE": 39.107709, "LONGITUDE": -77.152072, "INSTALLED": "YES", "LOCKED": "NO", "INSTALL_DA": null, "REMOVAL_DA": null, "TEMPORARY_": "NO", "NUMBER_OF_": 6, "NUMBER_O_1": 9, "X": 386847.10375582002, "Y": 159974.10023057999, "SE_ANNO_CA": null }, "geometry": { "type": "Point", "coordinates": [ -77.15207434376417, 39.107716824410801 ] } },
{ "type": "Feature", "properties": { "OBJECTID": 180380890, "ID": 282, "ADDRESS": "47th & Elm St", "TERMINAL_N": "32021", "LATITUDE": 38.982456, "LONGITUDE": -77.091991, "INSTALLED": "YES", "LOCKED": "NO", "INSTALL_DA": null, "REMOVAL_DA": null, "TEMPORARY_": "NO", "NUMBER_OF_": 5, "NUMBER_O_1": 10, "X": 392029.57027544, "Y": 146062.66507911001, "SE_ANNO_CA": null }, "geometry": { "type": "Point", "coordinates": [ -77.091993317532143, 38.98246380118691 ] } },
{ "type": "Feature", "properties": { "OBJECTID": 180380891, "ID": 283, "ADDRESS": "Dennis & Amherst Ave", "TERMINAL_N": "32022", "LATITUDE": 39.025387, "LONGITUDE": -77.044563, "INSTALLED": "YES", "LOCKED": "NO", "INSTALL_DA": null, "REMOVAL_DA": null, "TEMPORARY_": "NO", "NUMBER_OF_": 6, "NUMBER_O_1": 9, "X": 396141.22801173001, "Y": 150825.37283059, "SE_ANNO_CA": null }, "geometry": { "type": "Point", "coordinates": [ -77.04456530524088, 39.02539481158454 ] } },
{ "type": "Feature", "properties": { "OBJECTID": 180380892, "ID": 284, "ADDRESS": "Montgomery College\/W Campus Dr & Mannakee St", "TERMINAL_N": "32023", "LATITUDE": 39.095661, "LONGITUDE": -77.159048, "INSTALLED": "YES", "LOCKED": "NO", "INSTALL_DA": null, "REMOVAL_DA": null, "TEMPORARY_": "NO", "NUMBER_OF_": 14, "NUMBER_O_1": 7, "X": 386241.41121023998, "Y": 158637.64923132001, "SE_ANNO_CA": null }, "geometry": { "type": "Point", "coordinates": [ -77.159050345385424, 39.095668821724807 ] } },
{ "type": "Feature", "properties": { "OBJECTID": 180380893, "ID": 285, "ADDRESS": "Fenton St & Gist Ave", "TERMINAL_N": "32024", "LATITUDE": 38.989724, "LONGITUDE": -77.023854, "INSTALLED": "YES", "LOCKED": "NO", "INSTALL_DA": null, "REMOVAL_DA": null, "TEMPORARY_": "NO", "NUMBER_OF_": 3, "NUMBER_O_1": 8, "X": 397933.41450050002, "Y": 146865.73881136, "SE_ANNO_CA": null }, "geometry": { "type": "Point", "coordinates": [ -77.02385629646588, 38.989731805359952 ] } },
{ "type": "Feature", "properties": { "OBJECTID": 180380894, "ID": 286, "ADDRESS": "Carroll & Westmoreland Ave", "TERMINAL_N": "32025", "LATITUDE": 38.975, "LONGITUDE": -77.01121, "INSTALLED": "YES", "LOCKED": "NO", "INSTALL_DA": null, "REMOVAL_DA": null, "TEMPORARY_": "NO", "NUMBER_OF_": 5, "NUMBER_O_1": 10, "X": 399028.62364911003, "Y": 145231.02061742, "SE_ANNO_CA": null }, "geometry": { "type": "Point", "coordinates": [ -77.011212291895433, 38.975007802927081 ] } },
{ "type": "Feature", "properties": { "OBJECTID": 180380895, "ID": 287, "ADDRESS": "Carroll & Ethan Allen Ave", "TERMINAL_N": "32026", "LATITUDE": 38.977933, "LONGITUDE": -77.006472, "INSTALLED": "YES", "LOCKED": "NO", "INSTALL_DA": null, "REMOVAL_DA": null, "TEMPORARY_": "NO", "NUMBER_OF_": 2, "NUMBER_O_1": 13, "X": 399439.20704805001, "Y": 145556.57211519001, "SE_ANNO_CA": null }, "geometry": { "type": "Point", "coordinates": [ -77.006474290154117, 38.977940803714588 ] } },
{ "type": "Feature", "properties": { "OBJECTID": 180380896, "ID": 288, "ADDRESS": "Battery Ln & Trolley Trail", "TERMINAL_N": "32027", "LATITUDE": 38.992375, "LONGITUDE": -77.100104, "INSTALLED": "YES", "LOCKED": "NO", "INSTALL_DA": null, "REMOVAL_DA": null, "TEMPORARY_": "NO", "NUMBER_OF_": 9, "NUMBER_O_1": 6, "X": 391327.8386053, "Y": 147164.51103503001, "SE_ANNO_CA": null }, "geometry": { "type": "Point", "coordinates": [ -77.100106320148953, 38.992382803275618 ] } },
{ "type": "Feature", "properties": { "OBJECTID": 180380897, "ID": 289, "ADDRESS": "Norfolk & Rugby Ave", "TERMINAL_N": "32028", "LATITUDE": 38.990639, "LONGITUDE": -77.100239, "INSTALLED": "YES", "LOCKED": "NO", "INSTALL_DA": null, "REMOVAL_DA": null, "TEMPORARY_": "NO", "NUMBER_OF_": 7, "NUMBER_O_1": 4, "X": 391315.93174708, "Y": 146971.81066443, "SE_ANNO_CA": null }, "geometry": { "type": "Point", "coordinates": [ -77.100241320277732, 38.990646802881621 ] } },
{ "type": "Feature", "properties": { "OBJECTID": 180380898, "ID": 290, "ADDRESS": "Offutt Ln & Chevy Chase Dr", "TERMINAL_N": "32029", "LATITUDE": 38.977093, "LONGITUDE": -77.094589, "INSTALLED": "YES", "LOCKED": "NO", "INSTALL_DA": null, "REMOVAL_DA": null, "TEMPORARY_": "NO", "NUMBER_OF_": 7, "NUMBER_O_1": 4, "X": 391803.85346020001, "Y": 145467.55036065, "SE_ANNO_CA": null }, "geometry": { "type": "Point", "coordinates": [ -77.094591317980246, 38.97710080028947 ] } },
{ "type": "Feature", "properties": { "OBJECTID": 180380899, "ID": 291, "ADDRESS": "Broschart & Blackwell Rd", "TERMINAL_N": "32030", "LATITUDE": 39.102099, "LONGITUDE": -77.200322, "INSTALLED": "YES", "LOCKED": "NO", "INSTALL_DA": null, "REMOVAL_DA": null, "TEMPORARY_": "NO", "NUMBER_OF_": 6, "NUMBER_O_1": 9, "X": 382672.54057110002, "Y": 159359.37466242001, "SE_ANNO_CA": null }, "geometry": { "type": "Point", "coordinates": [ -77.200324358480572, 39.102106821516898 ] } },
{ "type": "Feature", "properties": { "OBJECTID": 180380900, "ID": 292, "ADDRESS": "Taft St & E Gude Dr", "TERMINAL_N": "32031", "LATITUDE": 39.094103, "LONGITUDE": -77.132954, "INSTALLED": "YES", "LOCKED": "NO", "INSTALL_DA": null, "REMOVAL_DA": null, "TEMPORARY_": "NO", "NUMBER_OF_": 9, "NUMBER_O_1": 6, "X": 388498.44225283002, "Y": 158461.08173000001, "SE_ANNO_CA": null }, "geometry": { "type": "Point", "coordinates": [ -77.13295633692799, 39.094110822407529 ] } },
{ "type": "Feature", "properties": { "OBJECTID": 180380901, "ID": 293, "ADDRESS": "Fleet St & Ritchie Pkwy", "TERMINAL_N": "32032", "LATITUDE": 39.076331, "LONGITUDE": -77.141378, "INSTALLED": "YES", "LOCKED": "NO", "INSTALL_DA": null, "REMOVAL_DA": null, "TEMPORARY_": "NO", "NUMBER_OF_": 8, "NUMBER_O_1": 7, "X": 387766.64569551998, "Y": 156489.26883494001, "SE_ANNO_CA": null }, "geometry": { "type": "Point", "coordinates": [ -77.141380338510444, 39.076338818142148 ] } },
{ "type": "Feature", "properties": { "OBJECTID": 180380902, "ID": 294, "ADDRESS": "Piccard & W Gude Dr", "TERMINAL_N": "32033", "LATITUDE": 39.102212, "LONGITUDE": -77.177091, "INSTALLED": "YES", "LOCKED": "NO", "INSTALL_DA": null, "REMOVAL_DA": null, "TEMPORARY_": "NO", "NUMBER_OF_": 11, "NUMBER_O_1": 8, "X": 384681.99807834998, "Y": 159367.76528287999, "SE_ANNO_CA": null }, "geometry": { "type": "Point", "coordinates": [ -77.177093351334236, 39.102219822456959 ] } },
{ "type": "Feature", "properties": { "OBJECTID": 180380903, "ID": 295, "ADDRESS": "Ripley & Bonifant St", "TERMINAL_N": "32034", "LATITUDE": 38.992679, "LONGITUDE": -77.029457, "INSTALLED": "YES", "LOCKED": "NO", "INSTALL_DA": null, "REMOVAL_DA": null, "TEMPORARY_": "NO", "NUMBER_OF_": 2, "NUMBER_O_1": 13, "X": 397448.10582111002, "Y": 147193.91499269, "SE_ANNO_CA": null }, "geometry": { "type": "Point", "coordinates": [ -77.029459298486771, 38.992686805800624 ] } },
{ "type": "Feature", "properties": { "OBJECTID": 180380904, "ID": 296, "ADDRESS": "Georgia Ave & Spring St", "TERMINAL_N": "32035", "LATITUDE": 38.999388, "LONGITUDE": -77.031555, "INSTALLED": "YES", "LOCKED": "NO", "INSTALL_DA": null, "REMOVAL_DA": null, "TEMPORARY_": "NO", "NUMBER_OF_": 5, "NUMBER_O_1": 6, "X": 397266.61108518997, "Y": 147938.74232081001, "SE_ANNO_CA": null }, "geometry": { "type": "Point", "coordinates": [ -77.031557299715033, 38.999395806931126 ] } },
{ "type": "Feature", "properties": { "OBJECTID": 180380905, "ID": 297, "ADDRESS": "Fenton St & Ellsworth Dr", "TERMINAL_N": "32036", "LATITUDE": 38.997033, "LONGITUDE": -77.025608, "INSTALLED": "YES", "LOCKED": "NO", "INSTALL_DA": null, "REMOVAL_DA": null, "TEMPORARY_": "NO", "NUMBER_OF_": 10, "NUMBER_O_1": 4, "X": 397781.68474404002, "Y": 147677.15218341001, "SE_ANNO_CA": null }, "geometry": { "type": "Point", "coordinates": [ -77.025610297386677, 38.99704080679161 ] } },
{ "type": "Feature", "properties": { "OBJECTID": 180380906, "ID": 298, "ADDRESS": "King Farm Blvd & Pleasant Dr", "TERMINAL_N": "32037", "LATITUDE": 39.114688, "LONGITUDE": -77.171487, "INSTALLED": "YES", "LOCKED": "NO", "INSTALL_DA": null, "REMOVAL_DA": null, "TEMPORARY_": "NO", "NUMBER_OF_": 7, "NUMBER_O_1": 11, "X": 385169.33354228002, "Y": 160751.83427443, "SE_ANNO_CA": null }, "geometry": { "type": "Point", "coordinates": [ -77.171489349945361, 39.114695824683309 ] } },
{ "type": "Feature", "properties": { "OBJECTID": 180380907, "ID": 299, "ADDRESS": "King Farm Blvd & Piccard Dr", "TERMINAL_N": "32038", "LATITUDE": 39.110314, "LONGITUDE": -77.182669, "INSTALLED": "YES", "LOCKED": "NO", "INSTALL_DA": null, "REMOVAL_DA": null, "TEMPORARY_": "NO", "NUMBER_OF_": 6, "NUMBER_O_1": 9, "X": 384201.31311064999, "Y": 160268.14020717001, "SE_ANNO_CA": null }, "geometry": { "type": "Point", "coordinates": [ -77.182671353225373, 39.110321823427434 ] } },
{ "type": "Feature", "properties": { "OBJECTID": 180380908, "ID": 301, "ADDRESS": "Calvert St & Woodley Pl NW", "TERMINAL_N": "31121", "LATITUDE": 38.923583, "LONGITUDE": -77.050046, "INSTALLED": "YES", "LOCKED": "NO", "INSTALL_DA": null, "REMOVAL_DA": null, "TEMPORARY_": "NO", "NUMBER_OF_": 8, "NUMBER_O_1": 10, "X": 395660.25194764999, "Y": 139524.3986898, "SE_ANNO_CA": null }, "geometry": { "type": "Point", "coordinates": [ -77.050048300680885, 38.923590791031216 ] } },
{ "type": "Feature", "properties": { "OBJECTID": 180380909, "ID": 302, "ADDRESS": "New Jersey Ave & N St NW\/Dunbar HS", "TERMINAL_N": "31636", "LATITUDE": 38.90706, "LONGITUDE": -77.015231, "INSTALLED": "YES", "LOCKED": "NO", "INSTALL_DA": null, "REMOVAL_DA": null, "TEMPORARY_": "NO", "NUMBER_OF_": 10, "NUMBER_O_1": 9, "X": 398678.93496157997, "Y": 137689.12877939999, "SE_ANNO_CA": null }, "geometry": { "type": "Point", "coordinates": [ -77.015233288989648, 38.907067788755796 ] } },
{ "type": "Feature", "properties": { "OBJECTID": 180380910, "ID": 303, "ADDRESS": "Nannie Helen Burroughs Ave & 49th St NE", "TERMINAL_N": "31710", "LATITUDE": 38.898536, "LONGITUDE": -76.931862, "INSTALLED": "YES", "LOCKED": "NO", "INSTALL_DA": null, "REMOVAL_DA": null, "TEMPORARY_": "NO", "NUMBER_OF_": 3, "NUMBER_O_1": 8, "X": 405910.67420774, "Y": 136744.99164113999, "SE_ANNO_CA": null }, "geometry": { "type": "Point", "coordinates": [ -76.931864262458006, 38.898543790259922 ] } },
{ "type": "Feature", "properties": { "OBJECTID": 180380911, "ID": 304, "ADDRESS": "Deanwood Rec Center", "TERMINAL_N": "31711", "LATITUDE": 38.908473, "LONGITUDE": -76.933099, "INSTALLED": "YES", "LOCKED": "NO", "INSTALL_DA": null, "REMOVAL_DA": null, "TEMPORARY_": "NO", "NUMBER_OF_": 9, "NUMBER_O_1": 6, "X": 405802.56147409999, "Y": 137847.99932996, "SE_ANNO_CA": null }, "geometry": { "type": "Point", "coordinates": [ -76.933101262916637, 38.908480792206483 ] } },
{ "type": "Feature", "properties": { "OBJECTID": 180380912, "ID": 305, "ADDRESS": "Hains Point\/Buckeye & Ohio Dr SW", "TERMINAL_N": "31273", "LATITUDE": 38.878433, "LONGITUDE": -77.03023, "INSTALLED": "YES", "LOCKED": "NO", "INSTALL_DA": null, "REMOVAL_DA": null, "TEMPORARY_": "NO", "NUMBER_OF_": 15, "NUMBER_O_1": 2, "X": 397376.94021436002, "Y": 134511.63048068, "SE_ANNO_CA": null }, "geometry": { "type": "Point", "coordinates": [ -77.0302322919446, 38.878440782861617 ] } },
{ "type": "Feature", "properties": { "OBJECTID": 180380913, "ID": 306, "ADDRESS": "Arlington Blvd & Fillmore St", "TERMINAL_N": "31070", "LATITUDE": 38.873755, "LONGITUDE": -77.089233, "INSTALLED": "YES", "LOCKED": "NO", "INSTALL_DA": null, "REMOVAL_DA": null, "TEMPORARY_": "NO", "NUMBER_OF_": 7, "NUMBER_O_1": 4, "X": 392256.73815346003, "Y": 133995.68730513001, "SE_ANNO_CA": null }, "geometry": { "type": "Point", "coordinates": [ -77.089235310043762, 38.873762779608796 ] } },
{ "type": "Feature", "properties": { "OBJECTID": 180380914, "ID": 307, "ADDRESS": "Long Bridge Park\/Long Bridge Dr & 6th St S", "TERMINAL_N": "31071", "LATITUDE": 38.86646, "LONGITUDE": -77.04826, "INSTALLED": "YES", "LOCKED": "NO", "INSTALL_DA": null, "REMOVAL_DA": null, "TEMPORARY_": "NO", "NUMBER_OF_": 4, "NUMBER_O_1": 7, "X": 395811.77300147002, "Y": 133183.21065875, "SE_ANNO_CA": null }, "geometry": { "type": "Point", "coordinates": [ -77.048262296534588, 38.866467779858652 ] } },
{ "type": "Feature", "properties": { "OBJECTID": 180380915, "ID": 308, "ADDRESS": "Old Georgetown Rd & Southwick St", "TERMINAL_N": "32039", "LATITUDE": 38.999634, "LONGITUDE": -77.109647, "INSTALLED": "YES", "LOCKED": "NO", "INSTALL_DA": null, "REMOVAL_DA": null, "TEMPORARY_": "NO", "NUMBER_OF_": 3, "NUMBER_O_1": 16, "X": 390502.08229336003, "Y": 147971.28240078001, "SE_ANNO_CA": null }, "geometry": { "type": "Point", "coordinates": [ -77.109649323573862, 38.999641803897866 ] } },
{ "type": "Feature", "properties": { "OBJECTID": 180380916, "ID": 309, "ADDRESS": "Friendship Blvd & Willard Ave", "TERMINAL_N": "32040", "LATITUDE": 38.96115, "LONGITUDE": -77.088659, "INSTALLED": "YES", "LOCKED": "NO", "INSTALL_DA": null, "REMOVAL_DA": null, "TEMPORARY_": "NO", "NUMBER_OF_": 9, "NUMBER_O_1": 10, "X": 392315.96955553, "Y": 143697.21146898001, "SE_ANNO_CA": null }, "geometry": { "type": "Point", "coordinates": [ -77.088661314811461, 38.961157797453524 ] } },
{ "type": "Feature", "properties": { "OBJECTID": 180380917, "ID": 310, "ADDRESS": "North Capitol St & G Pl NE", "TERMINAL_N": "31637", "LATITUDE": 38.899703, "LONGITUDE": -77.008911, "INSTALLED": "YES", "LOCKED": "NO", "INSTALL_DA": null, "REMOVAL_DA": null, "TEMPORARY_": "NO", "NUMBER_OF_": 14, "NUMBER_O_1": 4, "X": 399227.02220444003, "Y": 136872.36982970001, "SE_ANNO_CA": null }, "geometry": { "type": "Point", "coordinates": [ -77.008913286489943, 38.899710787617686 ] } },
{ "type": "Feature", "properties": { "OBJECTID": 180380918, "ID": 311, "ADDRESS": "31st & Woodrow St S", "TERMINAL_N": "31072", "LATITUDE": 38.837666, "LONGITUDE": -77.09482, "INSTALLED": "YES", "LOCKED": "NO", "INSTALL_DA": null, "REMOVAL_DA": null, "TEMPORARY_": "NO", "NUMBER_OF_": 3, "NUMBER_O_1": 8, "X": 391767.76100852003, "Y": 129990.04042840999, "SE_ANNO_CA": null }, "geometry": { "type": "Point", "coordinates": [ -77.09482230934934, 38.837673772133577 ] } },
{ "type": "Feature", "properties": { "OBJECTID": 180380919, "ID": 312, "ADDRESS": "Washington Blvd & Walter Reed Dr", "TERMINAL_N": "31073", "LATITUDE": 38.873219, "LONGITUDE": -77.082104, "INSTALLED": "YES", "LOCKED": "NO", "INSTALL_DA": null, "REMOVAL_DA": null, "TEMPORARY_": "NO", "NUMBER_OF_": 7, "NUMBER_O_1": 8, "X": 392875.30889503, "Y": 133935.6067688, "SE_ANNO_CA": null }, "geometry": { "type": "Point", "coordinates": [ -77.082106307694787, 38.873226779531237 ] } },
{ "type": "Feature", "properties": { "OBJECTID": 180380920, "ID": 313, "ADDRESS": "TJ Cmty Ctr \/ 2nd St & S Old Glebe Rd", "TERMINAL_N": "31074", "LATITUDE": 38.869418, "LONGITUDE": -77.095596, "INSTALLED": "YES", "LOCKED": "NO", "INSTALL_DA": null, "REMOVAL_DA": null, "TEMPORARY_": "NO", "NUMBER_OF_": 7, "NUMBER_O_1": 8, "X": 391704.07999901997, "Y": 133514.80715931, "SE_ANNO_CA": null }, "geometry": { "type": "Point", "coordinates": [ -77.095598311420076, 38.86942577868421 ] } },
{ "type": "Feature", "properties": { "OBJECTID": 180380921, "ID": 314, "ADDRESS": "Connecticut Ave & Tilden St NW", "TERMINAL_N": "31313", "LATITUDE": 38.941154, "LONGITUDE": -77.062036, "INSTALLED": "YES", "LOCKED": "NO", "INSTALL_DA": null, "REMOVAL_DA": null, "TEMPORARY_": "NO", "NUMBER_OF_": 2, "NUMBER_O_1": 13, "X": 394621.86255124002, "Y": 141475.56998398999, "SE_ANNO_CA": null }, "geometry": { "type": "Point", "coordinates": [ -77.062038305244116, 38.941161794288192 ] } },
{ "type": "Feature", "properties": { "OBJECTID": 180380922, "ID": 315, "ADDRESS": "Medical Center Dr & Key West Ave", "TERMINAL_N": "32041", "LATITUDE": 39.103091, "LONGITUDE": -77.196442, "INSTALLED": "YES", "LOCKED": "NO", "INSTALL_DA": null, "REMOVAL_DA": null, "TEMPORARY_": "NO", "NUMBER_OF_": 9, "NUMBER_O_1": 6, "X": 383008.38939988997, "Y": 159468.76971438, "SE_ANNO_CA": null }, "geometry": { "type": "Point", "coordinates": [ -77.196444357520605, 39.103098821393885 ] } },
{ "type": "Feature", "properties": { "OBJECTID": 180380923, "ID": 316, "ADDRESS": "Shady Grove Hospital", "TERMINAL_N": "32042", "LATITUDE": 39.097636, "LONGITUDE": -77.196636, "INSTALLED": "YES", "LOCKED": "NO", "INSTALL_DA": null, "REMOVAL_DA": null, "TEMPORARY_": "NO", "NUMBER_OF_": 5, "NUMBER_O_1": 14, "X": 382990.30463098001, "Y": 158863.23308023001, "SE_ANNO_CA": null }, "geometry": { "type": "Point", "coordinates": [ -77.196638357023545, 39.09764382037563 ] } },
{ "type": "Feature", "properties": { "OBJECTID": 180380924, "ID": 317, "ADDRESS": "Veterans Pl & Pershing Dr", "TERMINAL_N": "32043", "LATITUDE": 38.997445, "LONGITUDE": -77.023894, "INSTALLED": "YES", "LOCKED": "NO", "INSTALL_DA": null, "REMOVAL_DA": null, "TEMPORARY_": "NO", "NUMBER_OF_": 10, "NUMBER_O_1": 1, "X": 397930.17345121998, "Y": 147722.84809044999, "SE_ANNO_CA": null }, "geometry": { "type": "Point", "coordinates": [ -77.023896297105082, 38.997452806649967 ] } },
{ "type": "Feature", "properties": { "OBJECTID": 180380925, "ID": 318, "ADDRESS": "Rockville Metro East", "TERMINAL_N": "32044", "LATITUDE": 39.085394, "LONGITUDE": -77.145803, "INSTALLED": "YES", "LOCKED": "NO", "INSTALL_DA": null, "REMOVAL_DA": null, "TEMPORARY_": "NO", "NUMBER_OF_": 7, "NUMBER_O_1": 6, "X": 387385.36031083, "Y": 157495.97307419, "SE_ANNO_CA": null }, "geometry": { "type": "Point", "coordinates": [ -77.145805340338995, 39.085401819891125 ] } },
{ "type": "Feature", "properties": { "OBJECTID": 180380926, "ID": 319, "ADDRESS": "1st & H St NW", "TERMINAL_N": "31638", "LATITUDE": 38.900358, "LONGITUDE": -77.012108, "INSTALLED": "YES", "LOCKED": "NO", "INSTALL_DA": null, "REMOVAL_DA": null, "TEMPORARY_": "NO", "NUMBER_OF_": 11, "NUMBER_O_1": 4, "X": 398949.71056004998, "Y": 136945.11200625001, "SE_ANNO_CA": null }, "geometry": { "type": "Point", "coordinates": [ -77.012110287301979, 38.900365787729278 ] } },
{ "type": "Feature", "properties": { "OBJECTID": 180380927, "ID": 320, "ADDRESS": "Fort Totten Metro", "TERMINAL_N": "31515", "LATITUDE": 38.952369, "LONGITUDE": -77.002721, "INSTALLED": "YES", "LOCKED": "NO", "INSTALL_DA": null, "REMOVAL_DA": null, "TEMPORARY_": "NO", "NUMBER_OF_": 3, "NUMBER_O_1": 15, "X": 399764.14322203002, "Y": 142718.71185821999, "SE_ANNO_CA": null }, "geometry": { "type": "Point", "coordinates": [ -77.002723287263265, 38.95237679876972 ] } },
{ "type": "Feature", "properties": { "OBJECTID": 180380928, "ID": 321, "ADDRESS": "Takoma Metro", "TERMINAL_N": "31408", "LATITUDE": 38.975219, "LONGITUDE": -77.016855, "INSTALLED": "YES", "LOCKED": "NO", "INSTALL_DA": null, "REMOVAL_DA": null, "TEMPORARY_": "NO", "NUMBER_OF_": 7, "NUMBER_O_1": 12, "X": 398539.47386044002, "Y": 145255.40691126001, "SE_ANNO_CA": null }, "geometry": { "type": "Point", "coordinates": [ -77.016857293221463, 38.97522680292834 ] } },
{ "type": "Feature", "properties": { "OBJECTID": 180380929, "ID": 322, "ADDRESS": "Rhode Island Ave Metro", "TERMINAL_N": "31516", "LATITUDE": 38.920682, "LONGITUDE": -76.995876, "INSTALLED": "YES", "LOCKED": "NO", "INSTALL_DA": null, "REMOVAL_DA": null, "TEMPORARY_": "NO", "NUMBER_OF_": 1, "NUMBER_O_1": 18, "X": 400357.62798091001, "Y": 139201.18164888999, "SE_ANNO_CA": null }, "geometry": { "type": "Point", "coordinates": [ -76.995878283295923, 38.92068979227335 ] } },
{ "type": "Feature", "properties": { "OBJECTID": 180380930, "ID": 323, "ADDRESS": "Rolfe St & 9th St S", "TERMINAL_N": "31075", "LATITUDE": 38.866471, "LONGITUDE": -77.076131, "INSTALLED": "YES", "LOCKED": "NO", "INSTALL_DA": null, "REMOVAL_DA": null, "TEMPORARY_": "NO", "NUMBER_OF_": 3, "NUMBER_O_1": 8, "X": 393392.99961931002, "Y": 133186.07966769001, "SE_ANNO_CA": null }, "geometry": { "type": "Point", "coordinates": [ -77.076133305127797, 38.86647877874082 ] } },
{ "type": "Feature", "properties": { "OBJECTID": 180380931, "ID": 324, "ADDRESS": "Shirlington Transit Center \/ S Quincy & Randolph St", "TERMINAL_N": "31076", "LATITUDE": 38.839912, "LONGITUDE": -77.087083, "INSTALLED": "YES", "LOCKED": "NO", "INSTALL_DA": null, "REMOVAL_DA": null, "TEMPORARY_": "NO", "NUMBER_OF_": 12, "NUMBER_O_1": 3, "X": 392439.72224526003, "Y": 130238.69248395, "SE_ANNO_CA": null }, "geometry": { "type": "Point", "coordinates": [ -77.087085306926355, 38.839919772938401 ] } },
{ "type": "Feature", "properties": { "OBJECTID": 180380932, "ID": 325, "ADDRESS": "Shady Grove Metro West", "TERMINAL_N": "32045", "LATITUDE": 39.119765, "LONGITUDE": -77.166093, "INSTALLED": "YES", "LOCKED": "NO", "INSTALL_DA": null, "REMOVAL_DA": null, "TEMPORARY_": "NO", "NUMBER_OF_": 4, "NUMBER_O_1": 15, "X": 385636.84639948001, "Y": 161314.58449914001, "SE_ANNO_CA": null }, "geometry": { "type": "Point", "coordinates": [ -77.16609534909756, 39.119772826131623 ] } },
{ "type": "Feature", "properties": { "OBJECTID": 180380933, "ID": 326, "ADDRESS": "River Rd & Landy Ln", "TERMINAL_N": "32046", "LATITUDE": 38.964992, "LONGITUDE": -77.103381, "INSTALLED": "YES", "LOCKED": "NO", "INSTALL_DA": null, "REMOVAL_DA": null, "TEMPORARY_": "NO", "NUMBER_OF_": 7, "NUMBER_O_1": 10, "X": 391040.50480235001, "Y": 144125.05115002999, "SE_ANNO_CA": null }, "geometry": { "type": "Point", "coordinates": [ -77.103383319594528, 38.964999797170613 ] } },
{ "type": "Feature", "properties": { "OBJECTID": 180380934, "ID": 327, "ADDRESS": "Rockville Metro West", "TERMINAL_N": "32047", "LATITUDE": 39.084379, "LONGITUDE": -77.146866, "INSTALLED": "YES", "LOCKED": "NO", "INSTALL_DA": null, "REMOVAL_DA": null, "TEMPORARY_": "NO", "NUMBER_OF_": 7, "NUMBER_O_1": 12, "X": 387293.21007282002, "Y": 157383.44319069001, "SE_ANNO_CA": null }, "geometry": { "type": "Point", "coordinates": [ -77.146868340746011, 39.084386819723797 ] } },
{ "type": "Feature", "properties": { "OBJECTID": 180380935, "ID": 328, "ADDRESS": "Bethesda Metro", "TERMINAL_N": "32048", "LATITUDE": 38.984691, "LONGITUDE": -77.094537, "INSTALLED": "YES", "LOCKED": "NO", "INSTALL_DA": null, "REMOVAL_DA": null, "TEMPORARY_": "NO", "NUMBER_OF_": 1, "NUMBER_O_1": 11, "X": 391809.23272993998, "Y": 146310.99720784, "SE_ANNO_CA": null }, "geometry": { "type": "Point", "coordinates": [ -77.094539317937461, 38.984698801507975 ] } },
{ "type": "Feature", "properties": { "OBJECTID": 180380936, "ID": 329, "ADDRESS": "Iwo Jima Memorial\/N Meade & 14th St N", "TERMINAL_N": "31077", "LATITUDE": 38.88992, "LONGITUDE": -77.071301, "INSTALLED": "YES", "LOCKED": "NO", "INSTALL_DA": null, "REMOVAL_DA": null, "TEMPORARY_": "NO", "NUMBER_OF_": 11, "NUMBER_O_1": 8, "X": 393814.20236548001, "Y": 135788.75739915, "SE_ANNO_CA": null }, "geometry": { "type": "Point", "coordinates": [ -77.071303305012364, 38.889927783254848 ] } },
{ "type": "Feature", "properties": { "OBJECTID": 180380937, "ID": 330, "ADDRESS": "34th & Water St NW", "TERMINAL_N": "31314", "LATITUDE": 38.903663, "LONGITUDE": -77.067668, "INSTALLED": "YES", "LOCKED": "NO", "INSTALL_DA": null, "REMOVAL_DA": null, "TEMPORARY_": "NO", "NUMBER_OF_": 8, "NUMBER_O_1": 11, "X": 394130.51811026002, "Y": 137314.0993687, "SE_ANNO_CA": null }, "geometry": { "type": "Point", "coordinates": [ -77.06767030466186, 38.903670786435754 ] } },
{ "type": "Feature", "properties": { "OBJECTID": 180380938, "ID": 331, "ADDRESS": "Duke St & John Carlyle St", "TERMINAL_N": "31081", "LATITUDE": 38.804378, "LONGITUDE": -77.060866, "INSTALLED": "YES", "LOCKED": "NO", "INSTALL_DA": null, "REMOVAL_DA": null, "TEMPORARY_": "NO", "NUMBER_OF_": 4, "NUMBER_O_1": 11, "X": 394713.17102608999, "Y": 126292.34142583, "SE_ANNO_CA": null }, "geometry": { "type": "Point", "coordinates": [ -77.060868296960209, 38.804385766698893 ] } },
{ "type": "Feature", "properties": { "OBJECTID": 180380939, "ID": 332, "ADDRESS": "Lee Hwy & N Cleveland St", "TERMINAL_N": "31079", "LATITUDE": 38.894941, "LONGITUDE": -77.09169, "INSTALLED": "YES", "LOCKED": "NO", "INSTALL_DA": null, "REMOVAL_DA": null, "TEMPORARY_": "NO", "NUMBER_OF_": 10, "NUMBER_O_1": 5, "X": 392045.89232185, "Y": 136347.70672975, "SE_ANNO_CA": null }, "geometry": { "type": "Point", "coordinates": [ -77.091692311884003, 38.894948783905505 ] } },
{ "type": "Feature", "properties": { "OBJECTID": 180380940, "ID": 333, "ADDRESS": "Arlington Blvd & S George Mason Dr\/NFATC", "TERMINAL_N": "31078", "LATITUDE": 38.869442, "LONGITUDE": -77.104503, "INSTALLED": "YES", "LOCKED": "NO", "INSTALL_DA": null, "REMOVAL_DA": null, "TEMPORARY_": "NO", "NUMBER_OF_": 5, "NUMBER_O_1": 10, "X": 390931.12467668002, "Y": 133518.31847560999, "SE_ANNO_CA": null }, "geometry": { "type": "Point", "coordinates": [ -77.104505314079873, 38.86944977832222 ] } },
{ "type": "Feature", "properties": { "OBJECTID": 180380941, "ID": 334, "ADDRESS": "10th & G St NW", "TERMINAL_N": "31274", "LATITUDE": 38.898243, "LONGITUDE": -77.026235, "INSTALLED": "YES", "LOCKED": "NO", "INSTALL_DA": null, "REMOVAL_DA": null, "TEMPORARY_": "NO", "NUMBER_OF_": 19, "NUMBER_O_1": 4, "X": 397724.21868837997, "Y": 136710.58744, "SE_ANNO_CA": null }, "geometry": { "type": "Point", "coordinates": [ -77.026237291610286, 38.898250786782782 ] } },
{ "type": "Feature", "properties": { "OBJECTID": 180380942, "ID": 335, "ADDRESS": "Lee Hwy & N Scott St", "TERMINAL_N": "31080", "LATITUDE": 38.897612, "LONGITUDE": -77.080851, "INSTALLED": "YES", "LOCKED": "NO", "INSTALL_DA": null, "REMOVAL_DA": null, "TEMPORARY_": "NO", "NUMBER_OF_": 3, "NUMBER_O_1": 12, "X": 392986.43793208001, "Y": 136643.32022975001, "SE_ANNO_CA": null }, "geometry": { "type": "Point", "coordinates": [ -77.080853308503237, 38.897619784849027 ] } },
{ "type": "Feature", "properties": { "OBJECTID": 180380943, "ID": 336, "ADDRESS": "New Hampshire Ave & 24th St NW", "TERMINAL_N": "31275", "LATITUDE": 38.901755, "LONGITUDE": -77.051084, "INSTALLED": "YES", "LOCKED": "NO", "INSTALL_DA": null, "REMOVAL_DA": null, "TEMPORARY_": "NO", "NUMBER_OF_": 7, "NUMBER_O_1": 10, "X": 395568.88566437998, "Y": 137101.36038207999, "SE_ANNO_CA": null }, "geometry": { "type": "Point", "coordinates": [ -77.05108629928533, 38.901762786549796 ] } },
{ "type": "Feature", "properties": { "OBJECTID": 180380944, "ID": 337, "ADDRESS": "Eisenhower Ave & Mill Race Ln", "TERMINAL_N": "31082", "LATITUDE": 38.801111, "LONGITUDE": -77.068952, "INSTALLED": "YES", "LOCKED": "NO", "INSTALL_DA": null, "REMOVAL_DA": null, "TEMPORARY_": "NO", "NUMBER_OF_": 5, "NUMBER_O_1": 10, "X": 394010.54617838003, "Y": 125930.1835293, "SE_ANNO_CA": null }, "geometry": { "type": "Point", "coordinates": [ -77.068954298871645, 38.801118765368876 ] } },
{ "type": "Feature", "properties": { "OBJECTID": 180380945, "ID": 338, "ADDRESS": "Potomac Greens Dr & Slaters Ln", "TERMINAL_N": "31083", "LATITUDE": 38.82175, "LONGITUDE": -77.047494, "INSTALLED": "YES", "LOCKED": "NO", "INSTALL_DA": null, "REMOVAL_DA": null, "TEMPORARY_": "NO", "NUMBER_OF_": 9, "NUMBER_O_1": 2, "X": 395875.6679074, "Y": 128220.05526959999, "SE_ANNO_CA": null }, "geometry": { "type": "Point", "coordinates": [ -77.047496293208681, 38.821757770425052 ] } },
{ "type": "Feature", "properties": { "OBJECTID": 180380946, "ID": 339, "ADDRESS": "Ballenger Ave & Dulaney St", "TERMINAL_N": "31084", "LATITUDE": 38.802677, "LONGITUDE": -77.063562, "INSTALLED": "YES", "LOCKED": "NO", "INSTALL_DA": null, "REMOVAL_DA": null, "TEMPORARY_": "NO", "NUMBER_OF_": 12, "NUMBER_O_1": 6, "X": 394478.86466731998, "Y": 126103.67942378001, "SE_ANNO_CA": null }, "geometry": { "type": "Point", "coordinates": [ -77.063564297162955, 38.802684766273586 ] } },
{ "type": "Feature", "properties": { "OBJECTID": 180380947, "ID": 340, "ADDRESS": "Mount Vernon Ave & E Nelson Ave", "TERMINAL_N": "31085", "LATITUDE": 38.820064, "LONGITUDE": -77.057619, "INSTALLED": "YES", "LOCKED": "NO", "INSTALL_DA": null, "REMOVAL_DA": null, "TEMPORARY_": "NO", "NUMBER_OF_": 9, "NUMBER_O_1": 2, "X": 394996.30487652001, "Y": 128033.40446264, "SE_ANNO_CA": null }, "geometry": { "type": "Point", "coordinates": [ -77.057621296620852, 38.820071769657474 ] } },
{ "type": "Feature", "properties": { "OBJECTID": 180380948, "ID": 341, "ADDRESS": "Mount Vernon Ave & E Del Ray Ave", "TERMINAL_N": "31086", "LATITUDE": 38.82595, "LONGITUDE": -77.058541, "INSTALLED": "YES", "LOCKED": "NO", "INSTALL_DA": null, "REMOVAL_DA": null, "TEMPORARY_": "NO", "NUMBER_OF_": 11, "NUMBER_O_1": 4, "X": 394916.65642772999, "Y": 128686.84003154001, "SE_ANNO_CA": null }, "geometry": { "type": "Point", "coordinates": [ -77.05854329713641, 38.825957771317469 ] } },
{ "type": "Feature", "properties": { "OBJECTID": 180380949, "ID": 342, "ADDRESS": "Monroe Ave & Leslie Ave", "TERMINAL_N": "31087", "LATITUDE": 38.820932, "LONGITUDE": -77.053096, "INSTALLED": "YES", "LOCKED": "NO", "INSTALL_DA": null, "REMOVAL_DA": null, "TEMPORARY_": "NO", "NUMBER_OF_": 7, "NUMBER_O_1": 8, "X": 395389.14299363003, "Y": 128129.51994126, "SE_ANNO_CA": null }, "geometry": { "type": "Point", "coordinates": [ -77.053098295175502, 38.820939770193903 ] } },
{ "type": "Feature", "properties": { "OBJECTID": 180380950, "ID": 343, "ADDRESS": "Mount Vernon Ave & Kennedy St", "TERMINAL_N": "31088", "LATITUDE": 38.833077, "LONGITUDE": -77.059821, "INSTALLED": "YES", "LOCKED": "NO", "INSTALL_DA": null, "REMOVAL_DA": null, "TEMPORARY_": "NO", "NUMBER_OF_": 8, "NUMBER_O_1": 6, "X": 394806.02748043003, "Y": 129478.05665833, "SE_ANNO_CA": null }, "geometry": { "type": "Point", "coordinates": [ -77.059823297855658, 38.833084772692956 ] } },
{ "type": "Feature", "properties": { "OBJECTID": 180380951, "ID": 344, "ADDRESS": "Court House Metro \/ 15th & N Uhle St", "TERMINAL_N": "31089", "LATITUDE": 38.890612, "LONGITUDE": -77.084801, "INSTALLED": "YES", "LOCKED": "NO", "INSTALL_DA": null, "REMOVAL_DA": null, "TEMPORARY_": "NO", "NUMBER_OF_": 7, "NUMBER_O_1": 13, "X": 392643.06650428998, "Y": 135866.57615407, "SE_ANNO_CA": null }, "geometry": { "type": "Point", "coordinates": [ -77.084803309415946, 38.890619782845825 ] } },
{ "type": "Feature", "properties": { "OBJECTID": 180380952, "ID": 436, "ADDRESS": "New Dominion Pkwy & Fountain Dr", "TERMINAL_N": "32212", "LATITUDE": 38.960574, "LONGITUDE": -77.356324, "INSTALLED": "YES", "LOCKED": "NO", "INSTALL_DA": null, "REMOVAL_DA": null, "TEMPORARY_": "NO", "NUMBER_OF_": 10, "NUMBER_O_1": 5, "X": 369117.40410411998, "Y": 143689.81045717999, "SE_ANNO_CA": null }, "geometry": { "type": "Point", "coordinates": [ -77.356326397905846, 38.96058178681448 ] } },
{ "type": "Feature", "properties": { "OBJECTID": 180380953, "ID": 437, "ADDRESS": "Sunset Hills & Old Reston Ave", "TERMINAL_N": "32213", "LATITUDE": 38.955079, "LONGITUDE": -77.351649, "INSTALLED": "YES", "LOCKED": "NO", "INSTALL_DA": null, "REMOVAL_DA": null, "TEMPORARY_": "NO", "NUMBER_OF_": 8, "NUMBER_O_1": 7, "X": 369520.23453313002, "Y": 143078.24814447001, "SE_ANNO_CA": null }, "geometry": { "type": "Point", "coordinates": [ -77.351651396013736, 38.955086785888817 ] } },
{ "type": "Feature", "properties": { "OBJECTID": 180380954, "ID": 438, "ADDRESS": "Reston Town Center Transit Station", "TERMINAL_N": "32214", "LATITUDE": 38.957037, "LONGITUDE": -77.359718, "INSTALLED": "YES", "LOCKED": "NO", "INSTALL_DA": null, "REMOVAL_DA": null, "TEMPORARY_": "NO", "NUMBER_OF_": 8, "NUMBER_O_1": 9, "X": 368821.70051474997, "Y": 143298.32745781, "SE_ANNO_CA": null }, "geometry": { "type": "Point", "coordinates": [ -77.359720399153019, 38.95704478596852 ] } },
{ "type": "Feature", "properties": { "OBJECTID": 180380955, "ID": 439, "ADDRESS": "1st & D St SE", "TERMINAL_N": "31643", "LATITUDE": 38.884916, "LONGITUDE": -77.005965, "INSTALLED": "YES", "LOCKED": "NO", "INSTALL_DA": null, "REMOVAL_DA": null, "TEMPORARY_": "NO", "NUMBER_OF_": 9, "NUMBER_O_1": 10, "X": 399482.46343538002, "Y": 135230.87572136, "SE_ANNO_CA": null }, "geometry": { "type": "Point", "coordinates": [ -77.005967284450847, 38.884923785157774 ] } },
{ "type": "Feature", "properties": { "OBJECTID": 180380956, "ID": 440, "ADDRESS": "Reston Station", "TERMINAL_N": "32215", "LATITUDE": 38.948363, "LONGITUDE": -77.338119, "INSTALLED": "YES", "LOCKED": "NO", "INSTALL_DA": null, "REMOVAL_DA": null, "TEMPORARY_": "NO", "NUMBER_OF_": 20, "NUMBER_O_1": 14, "X": 370690.20310023997, "Y": 142328.28566882, "SE_ANNO_CA": null }, "geometry": { "type": "Point", "coordinates": [ -77.338121391445526, 38.94837078539296 ] } },
{ "type": "Feature", "properties": { "OBJECTID": 180380957, "ID": 441, "ADDRESS": "Library St & Freedom Dr", "TERMINAL_N": "32216", "LATITUDE": 38.959633, "LONGITUDE": -77.358741, "INSTALLED": "YES", "LOCKED": "NO", "INSTALL_DA": null, "REMOVAL_DA": null, "TEMPORARY_": "NO", "NUMBER_OF_": 10, "NUMBER_O_1": 8, "X": 368907.51332442998, "Y": 143586.17197497, "SE_ANNO_CA": null }, "geometry": { "type": "Point", "coordinates": [ -77.358743398979598, 38.95964078693563 ] } },
{ "type": "Feature", "properties": { "OBJECTID": 180380958, "ID": 442, "ADDRESS": "Sunset Hills Rd & Discovery Square", "TERMINAL_N": "32217", "LATITUDE": 38.95534, "LONGITUDE": -77.357611, "INSTALLED": "YES", "LOCKED": "NO", "INSTALL_DA": null, "REMOVAL_DA": null, "TEMPORARY_": "NO", "NUMBER_OF_": 4, "NUMBER_O_1": 10, "X": 369003.58432791999, "Y": 143109.22880514999, "SE_ANNO_CA": null }, "geometry": { "type": "Point", "coordinates": [ -77.357613398401696, 38.955347785956093 ] } },
{ "type": "Feature", "properties": { "OBJECTID": 180380959, "ID": 443, "ADDRESS": "22nd St & Constitution Ave NW", "TERMINAL_N": "31292", "LATITUDE": 38.892441, "LONGITUDE": -77.048947, "INSTALLED": "YES", "LOCKED": "NO", "INSTALL_DA": null, "REMOVAL_DA": null, "TEMPORARY_": "NO", "NUMBER_OF_": 10, "NUMBER_O_1": 13, "X": 395753.69834410999, "Y": 136067.33084543, "SE_ANNO_CA": null }, "geometry": { "type": "Point", "coordinates": [ -77.048949297961471, 38.892448785081704 ] } },
{ "type": "Feature", "properties": { "OBJECTID": 180380960, "ID": 444, "ADDRESS": "61st St & Banks Pl NE", "TERMINAL_N": "31714", "LATITUDE": 38.891805, "LONGITUDE": -76.913563, "INSTALLED": "YES", "LOCKED": "NO", "INSTALL_DA": null, "REMOVAL_DA": null, "TEMPORARY_": "NO", "NUMBER_OF_": 5, "NUMBER_O_1": 14, "X": 407498.73967816, "Y": 135999.14156768, "SE_ANNO_CA": null }, "geometry": { "type": "Point", "coordinates": [ -76.913565256006407, 38.891812789680024 ] } },
{ "type": "Feature", "properties": { "OBJECTID": 180380961, "ID": 445, "ADDRESS": "Temporary Rd & Old Reston Ave", "TERMINAL_N": "32218", "LATITUDE": 38.960084, "LONGITUDE": -77.353414, "INSTALLED": "YES", "LOCKED": "NO", "INSTALL_DA": null, "REMOVAL_DA": null, "TEMPORARY_": "NO", "NUMBER_OF_": 6, "NUMBER_O_1": 9, "X": 369369.40191423998, "Y": 143634.43589560001, "SE_ANNO_CA": null }, "geometry": { "type": "Point", "coordinates": [ -77.353416396943132, 38.960091786817721 ] } },
{ "type": "Feature", "properties": { "OBJECTID": 180380962, "ID": 446, "ADDRESS": "Reston YMCA", "TERMINAL_N": "32219", "LATITUDE": 38.955314, "LONGITUDE": -77.368416, "INSTALLED": "YES", "LOCKED": "NO", "INSTALL_DA": null, "REMOVAL_DA": null, "TEMPORARY_": "NO", "NUMBER_OF_": 8, "NUMBER_O_1": 7, "X": 368067.03974401002, "Y": 143110.06678210999, "SE_ANNO_CA": null }, "geometry": { "type": "Point", "coordinates": [ -77.36841840151375, 38.95532178575094 ] } },
{ "type": "Feature", "properties": { "OBJECTID": 180380963, "ID": 447, "ADDRESS": "Sunset Hills Rd & Isaac Newton Square", "TERMINAL_N": "32220", "LATITUDE": 38.951443, "LONGITUDE": -77.34038, "INSTALLED": "YES", "LOCKED": "NO", "INSTALL_DA": null, "REMOVAL_DA": null, "TEMPORARY_": "NO", "NUMBER_OF_": 9, "NUMBER_O_1": 2, "X": 370495.74442880001, "Y": 142670.91855872, "SE_ANNO_CA": null }, "geometry": { "type": "Point", "coordinates": [ -77.340379392522934, 38.951450785792183 ] } },
{ "type": "Feature", "properties": { "OBJECTID": 180380964, "ID": 448, "ADDRESS": "N Lynn St & Fairfax Dr", "TERMINAL_N": "31917", "LATITUDE": 38.89386, "LONGITUDE": -77.070862, "INSTALLED": "YES", "LOCKED": "NO", "INSTALL_DA": null, "REMOVAL_DA": null, "TEMPORARY_": "NO", "NUMBER_OF_": 7, "NUMBER_O_1": 8, "X": 393852.62779737002, "Y": 136226.09856392001, "SE_ANNO_CA": null }, "geometry": { "type": "Point", "coordinates": [ -77.070864305052098, 38.89386778427054 ] } },
{ "type": "Feature", "properties": { "OBJECTID": 180380965, "ID": 449, "ADDRESS": "Georgia Ave & Piney Branch Rd NW", "TERMINAL_N": "31414", "LATITUDE": 38.967505, "LONGITUDE": -77.027976, "INSTALLED": "YES", "LOCKED": "NO", "INSTALL_DA": null, "REMOVAL_DA": null, "TEMPORARY_": "NO", "NUMBER_OF_": 5, "NUMBER_O_1": 10, "X": 397575.55015788, "Y": 144399.31612924999, "SE_ANNO_CA": null }, "geometry": { "type": "Point", "coordinates": [ -77.027978296039208, 38.967512800685149 ] } },
{ "type": "Feature", "properties": { "OBJECTID": 180380966, "ID": 450, "ADDRESS": "Greensboro & International Dr", "TERMINAL_N": "32221", "LATITUDE": 38.923083, "LONGITUDE": -77.227417, "INSTALLED": "YES", "LOCKED": "NO", "INSTALL_DA": null, "REMOVAL_DA": null, "TEMPORARY_": "NO", "NUMBER_OF_": 3, "NUMBER_O_1": 8, "X": 380279.37434818002, "Y": 139492.26880639, "SE_ANNO_CA": null }, "geometry": { "type": "Point", "coordinates": [ -77.22741935542966, 38.923090784362287 ] } },
{ "type": "Feature", "properties": { "OBJECTID": 180380967, "ID": 451, "ADDRESS": "Madison & Fairfax St", "TERMINAL_N": "31918", "LATITUDE": 38.812351, "LONGITUDE": -77.040691, "INSTALLED": "YES", "LOCKED": "NO", "INSTALL_DA": null, "REMOVAL_DA": null, "TEMPORARY_": "NO", "NUMBER_OF_": 8, "NUMBER_O_1": 7, "X": 396465.96860825003, "Y": 127176.42009605, "SE_ANNO_CA": null }, "geometry": { "type": "Point", "coordinates": [ -77.040693290674156, 38.812358769216708 ] } },
{ "type": "Feature", "properties": { "OBJECTID": 180380968, "ID": 452, "ADDRESS": "Sligo Ave & Carroll Ln", "TERMINAL_N": "32058", "LATITUDE": 38.990874, "LONGITUDE": -77.016311, "INSTALLED": "YES", "LOCKED": "NO", "INSTALL_DA": null, "REMOVAL_DA": null, "TEMPORARY_": "NO", "NUMBER_OF_": 4, "NUMBER_O_1": 11, "X": 398586.92327584, "Y": 146993.25649100001, "SE_ANNO_CA": null }, "geometry": { "type": "Point", "coordinates": [ -77.01631329447865, 38.990881805944134 ] } },
{ "type": "Feature", "properties": { "OBJECTID": 180380969, "ID": 453, "ADDRESS": "15th & W St NW", "TERMINAL_N": "31125", "LATITUDE": 38.919086, "LONGITUDE": -77.034502, "INSTALLED": "YES", "LOCKED": "NO", "INSTALL_DA": null, "REMOVAL_DA": null, "TEMPORARY_": "NO", "NUMBER_OF_": 8, "NUMBER_O_1": 10, "X": 397007.96400293999, "Y": 139024.5695478, "SE_ANNO_CA": null }, "geometry": { "type": "Point", "coordinates": [ -77.03450429548225, 38.919093790858426 ] } },
{ "type": "Feature", "properties": { "OBJECTID": 180380970, "ID": 454, "ADDRESS": "12th St & Pennsylvania Ave SE", "TERMINAL_N": "31644", "LATITUDE": 38.882489, "LONGITUDE": -76.990121, "INSTALLED": "YES", "LOCKED": "NO", "INSTALL_DA": null, "REMOVAL_DA": null, "TEMPORARY_": "NO", "NUMBER_OF_": 12, "NUMBER_O_1": 7, "X": 400857.15299710998, "Y": 134961.48951302, "SE_ANNO_CA": null }, "geometry": { "type": "Point", "coordinates": [ -76.990123279360105, 38.882496784882782 ] } },
{ "type": "Feature", "properties": { "OBJECTID": 180380971, "ID": 455, "ADDRESS": "3rd St & Riggs Rd NE", "TERMINAL_N": "31412", "LATITUDE": 38.957463, "LONGITUDE": -77.002239, "INSTALLED": "YES", "LOCKED": "NO", "INSTALL_DA": null, "REMOVAL_DA": null, "TEMPORARY_": "NO", "NUMBER_OF_": 9, "NUMBER_O_1": 6, "X": 399805.93693957001, "Y": 143284.19137817001, "SE_ANNO_CA": null }, "geometry": { "type": "Point", "coordinates": [ -77.002241287771554, 38.957470799633988 ] } },
{ "type": "Feature", "properties": { "OBJECTID": 180380972, "ID": 456, "ADDRESS": "Carlin Springs Rd & N Thomas St", "TERMINAL_N": "31919", "LATITUDE": 38.876695, "LONGITUDE": -77.112982, "INSTALLED": "YES", "LOCKED": "NO", "INSTALL_DA": null, "REMOVAL_DA": null, "TEMPORARY_": "NO", "NUMBER_OF_": 6, "NUMBER_O_1": 9, "X": 390196.30536757002, "Y": 134324.33170588, "SE_ANNO_CA": null }, "geometry": { "type": "Point", "coordinates": [ -77.1129843172005, 38.876702779082869 ] } },
{ "type": "Feature", "properties": { "OBJECTID": 180380973, "ID": 457, "ADDRESS": "Towers Crescent Dr & Tysons One Pl", "TERMINAL_N": "32222", "LATITUDE": 38.915246, "LONGITUDE": -77.220157, "INSTALLED": "YES", "LOCKED": "NO", "INSTALL_DA": null, "REMOVAL_DA": null, "TEMPORARY_": "NO", "NUMBER_OF_": 4, "NUMBER_O_1": 7, "X": 380906.83105285, "Y": 138620.75516987001, "SE_ANNO_CA": null }, "geometry": { "type": "Point", "coordinates": [ -77.220159352886995, 38.91525378316058 ] } },
{ "type": "Feature", "properties": { "OBJECTID": 180380974, "ID": 458, "ADDRESS": "6th & K St NE", "TERMINAL_N": "31645", "LATITUDE": 38.902877, "LONGITUDE": -76.998405, "INSTALLED": "YES", "LOCKED": "NO", "INSTALL_DA": null, "REMOVAL_DA": null, "TEMPORARY_": "NO", "NUMBER_OF_": 14, "NUMBER_O_1": 5, "X": 400138.35088416003, "Y": 137224.67283592999, "SE_ANNO_CA": null }, "geometry": { "type": "Point", "coordinates": [ -76.998407283322237, 38.902884788593212 ] } },
{ "type": "Feature", "properties": { "OBJECTID": 180380975, "ID": 459, "ADDRESS": "Pooks Hill Rd & Linden Ave", "TERMINAL_N": "32057", "LATITUDE": 39.014716, "LONGITUDE": -77.107143, "INSTALLED": "YES", "LOCKED": "NO", "INSTALL_DA": null, "REMOVAL_DA": null, "TEMPORARY_": "NO", "NUMBER_OF_": 6, "NUMBER_O_1": 9, "X": 390720.95043328003, "Y": 149645.2816699, "SE_ANNO_CA": null }, "geometry": { "type": "Point", "coordinates": [ -77.107145323896333, 39.014723807414654 ] } },
{ "type": "Feature", "properties": { "OBJECTID": 180380976, "ID": 460, "ADDRESS": "Takoma Park Rec Center", "TERMINAL_N": "32059", "LATITUDE": 38.98265, "LONGITUDE": -76.988311, "INSTALLED": "YES", "LOCKED": "NO", "INSTALL_DA": null, "REMOVAL_DA": null, "TEMPORARY_": "NO", "NUMBER_OF_": 5, "NUMBER_O_1": 10, "X": 401012.77423762, "Y": 146080.24993225001, "SE_ANNO_CA": null }, "geometry": { "type": "Point", "coordinates": [ -76.988313284808186, 38.9826578053014 ] } },
{ "type": "Feature", "properties": { "OBJECTID": 180380977, "ID": 461, "ADDRESS": "New Hampshire & Kirklynn Ave", "TERMINAL_N": "32061", "LATITUDE": 38.988101, "LONGITUDE": -76.988422, "INSTALLED": "YES", "LOCKED": "NO", "INSTALL_DA": null, "REMOVAL_DA": null, "TEMPORARY_": "NO", "NUMBER_OF_": 4, "NUMBER_O_1": 11, "X": 401003.08007879998, "Y": 146685.36332198, "SE_ANNO_CA": null }, "geometry": { "type": "Point", "coordinates": [ -76.988424285508003, 38.988108806261735 ] } },
{ "type": "Feature", "properties": { "OBJECTID": 180380978, "ID": 462, "ADDRESS": "Wheaton Metro\/Georgia Ave & Reedie Dr", "TERMINAL_N": "32062", "LATITUDE": 39.038341, "LONGITUDE": -77.051023, "INSTALLED": "YES", "LOCKED": "NO", "INSTALL_DA": null, "REMOVAL_DA": null, "TEMPORARY_": "NO", "NUMBER_OF_": 4, "NUMBER_O_1": 15, "X": 395582.65145221999, "Y": 152263.70107898, "SE_ANNO_CA": null }, "geometry": { "type": "Point", "coordinates": [ -77.051025308086466, 39.038348813960681 ] } },
{ "type": "Feature", "properties": { "OBJECTID": 180380979, "ID": 463, "ADDRESS": "Amherst Ave & Elkins St", "TERMINAL_N": "32063", "LATITUDE": 39.044887, "LONGITUDE": -77.047788, "INSTALLED": "YES", "LOCKED": "NO", "INSTALL_DA": null, "REMOVAL_DA": null, "TEMPORARY_": "NO", "NUMBER_OF_": 7, "NUMBER_O_1": 8, "X": 395863.10400444001, "Y": 152990.22852961, "SE_ANNO_CA": null }, "geometry": { "type": "Point", "coordinates": [ -77.047790307363002, 39.044894815279235 ] } },
{ "type": "Feature", "properties": { "OBJECTID": 180380980, "ID": 464, "ADDRESS": "Amherst Ave & Prichard Rd", "TERMINAL_N": "32064", "LATITUDE": 39.035965, "LONGITUDE": -77.048395, "INSTALLED": "YES", "LOCKED": "NO", "INSTALL_DA": null, "REMOVAL_DA": null, "TEMPORARY_": "NO", "NUMBER_OF_": 5, "NUMBER_O_1": 10, "X": 395810.0323662, "Y": 151999.81494344, "SE_ANNO_CA": null }, "geometry": { "type": "Point", "coordinates": [ -77.048397306849523, 39.035972813676686 ] } },
{ "type": "Feature", "properties": { "OBJECTID": 180380981, "ID": 465, "ADDRESS": "Grandview & Blueridge Ave", "TERMINAL_N": "32065", "LATITUDE": 39.043272, "LONGITUDE": -77.053085, "INSTALLED": "YES", "LOCKED": "NO", "INSTALL_DA": null, "REMOVAL_DA": null, "TEMPORARY_": "NO", "NUMBER_OF_": 8, "NUMBER_O_1": 7, "X": 395404.45083083998, "Y": 152811.19876663, "SE_ANNO_CA": null }, "geometry": { "type": "Point", "coordinates": [ -77.053087309074868, 39.043279814872953 ] } },
{ "type": "Feature", "properties": { "OBJECTID": 180380982, "ID": 466, "ADDRESS": "Windham Ln & Amherst Ave", "TERMINAL_N": "32066", "LATITUDE": 39.032029, "LONGITUDE": -77.04735, "INSTALLED": "YES", "LOCKED": "NO", "INSTALL_DA": null, "REMOVAL_DA": null, "TEMPORARY_": "NO", "NUMBER_OF_": 8, "NUMBER_O_1": 7, "X": 395900.28028089, "Y": 151562.82832343, "SE_ANNO_CA": null }, "geometry": { "type": "Point", "coordinates": [ -77.047352306739768, 39.032036812879745 ] } },
{ "type": "Feature", "properties": { "OBJECTID": 180380983, "ID": 467, "ADDRESS": "North Shore Dr & Village Rd", "TERMINAL_N": "32223", "LATITUDE": 38.970412, "LONGITUDE": -77.340787, "INSTALLED": "YES", "LOCKED": "NO", "INSTALL_DA": null, "REMOVAL_DA": null, "TEMPORARY_": "NO", "NUMBER_OF_": 6, "NUMBER_O_1": 5, "X": 370468.0661928, "Y": 144776.77171083001, "SE_ANNO_CA": null }, "geometry": { "type": "Point", "coordinates": [ -77.340789393985872, 38.970419789344753 ] } },
{ "type": "Feature", "properties": { "OBJECTID": 180380984, "ID": 468, "ADDRESS": "Town Center Pkwy & Sunset Hills Rd", "TERMINAL_N": "32224", "LATITUDE": 38.955171, "LONGITUDE": -77.363094, "INSTALLED": "YES", "LOCKED": "NO", "INSTALL_DA": null, "REMOVAL_DA": null, "TEMPORARY_": "NO", "NUMBER_OF_": 4, "NUMBER_O_1": 7, "X": 368528.26577752002, "Y": 143092.34439350001, "SE_ANNO_CA": null }, "geometry": { "type": "Point", "coordinates": [ -77.363096400234497, 38.955178785481699 ] } },
{ "type": "Feature", "properties": { "OBJECTID": 180380985, "ID": 469, "ADDRESS": "3rd & Underwood St NW", "TERMINAL_N": "31413", "LATITUDE": 38.968834, "LONGITUDE": -77.016258, "INSTALLED": "YES", "LOCKED": "NO", "INSTALL_DA": null, "REMOVAL_DA": null, "TEMPORARY_": "NO", "NUMBER_OF_": 6, "NUMBER_O_1": 13, "X": 398591.07910767, "Y": 144546.60165408, "SE_ANNO_CA": null }, "geometry": { "type": "Point", "coordinates": [ -77.016260292611875, 38.968841801166924 ] } },
{ "type": "Feature", "properties": { "OBJECTID": 180380986, "ID": 470, "ADDRESS": "18th & Monroe St NE", "TERMINAL_N": "31521", "LATITUDE": 38.93293, "LONGITUDE": -76.979517, "INSTALLED": "YES", "LOCKED": "NO", "INSTALL_DA": null, "REMOVAL_DA": null, "TEMPORARY_": "NO", "NUMBER_OF_": 11, "NUMBER_O_1": 8, "X": 401775.95435655001, "Y": 140561.00567054999, "SE_ANNO_CA": null }, "geometry": { "type": "Point", "coordinates": [ -76.979519278955593, 38.932937795719887 ] } },
{ "type": "Feature", "properties": { "OBJECTID": 180380987, "ID": 471, "ADDRESS": "7th & E St SW", "TERMINAL_N": "31294", "LATITUDE": 38.88345, "LONGITUDE": -77.021741, "INSTALLED": "YES", "LOCKED": "NO", "INSTALL_DA": null, "REMOVAL_DA": null, "TEMPORARY_": "NO", "NUMBER_OF_": 11, "NUMBER_O_1": 7, "X": 398113.66411756998, "Y": 135068.34613835, "SE_ANNO_CA": null }, "geometry": { "type": "Point", "coordinates": [ -77.021743289212338, 38.883457783895899 ] } },
{ "type": "Feature", "properties": { "OBJECTID": 180380988, "ID": 472, "ADDRESS": "Shady Grove Metro East", "TERMINAL_N": "32067", "LATITUDE": 39.121327, "LONGITUDE": -77.164969, "INSTALLED": "YES", "LOCKED": "NO", "INSTALL_DA": null, "REMOVAL_DA": null, "TEMPORARY_": "NO", "NUMBER_OF_": 8, "NUMBER_O_1": 10, "X": 385734.35932116001, "Y": 161487.81062323999, "SE_ANNO_CA": null }, "geometry": { "type": "Point", "coordinates": [ -77.164971348661581, 39.121334826495499 ] } },
{ "type": "Feature", "properties": { "OBJECTID": 180380989, "ID": 473, "ADDRESS": "Potomac & M St NW", "TERMINAL_N": "31295", "LATITUDE": 38.905368, "LONGITUDE": -77.065149, "INSTALLED": "YES", "LOCKED": "NO", "INSTALL_DA": null, "REMOVAL_DA": null, "TEMPORARY_": "NO", "NUMBER_OF_": 15, "NUMBER_O_1": 4, "X": 394349.14970106998, "Y": 137503.20919441001, "SE_ANNO_CA": null }, "geometry": { "type": "Point", "coordinates": [ -77.065151304308188, 38.905375786754348 ] } },
{ "type": "Feature", "properties": { "OBJECTID": 180380990, "ID": 474, "ADDRESS": "Columbia & Ontario Rd NW", "TERMINAL_N": "31296", "LATITUDE": 38.924088, "LONGITUDE": -77.040787, "INSTALLED": "YES", "LOCKED": "NO", "INSTALL_DA": null, "REMOVAL_DA": null, "TEMPORARY_": "NO", "NUMBER_OF_": 4, "NUMBER_O_1": 19, "X": 396463.17281513999, "Y": 139580.05853158, "SE_ANNO_CA": null }, "geometry": { "type": "Point", "coordinates": [ -77.04078929774218, 38.924095791777987 ] } },
{ "type": "Feature", "properties": { "OBJECTID": 180380991, "ID": 475, "ADDRESS": "Washington-Lee High School \/ N Stafford St & Generals Way", "TERMINAL_N": "31920", "LATITUDE": 38.888282, "LONGITUDE": -77.111066, "INSTALLED": "YES", "LOCKED": "NO", "INSTALL_DA": null, "REMOVAL_DA": null, "TEMPORARY_": "NO", "NUMBER_OF_": 6, "NUMBER_O_1": 9, "X": 390364.12569347001, "Y": 135610.37264374999, "SE_ANNO_CA": null }, "geometry": { "type": "Point", "coordinates": [ -77.111068317467655, 38.888289781487423 ] } },
{ "type": "Feature", "properties": { "OBJECTID": 180380992, "ID": 476, "ADDRESS": "Westover Library \/ Washington Blvd & N McKinley Rd", "TERMINAL_N": "31921", "LATITUDE": 38.886048, "LONGITUDE": -77.142317, "INSTALLED": "YES", "LOCKED": "NO", "INSTALL_DA": null, "REMOVAL_DA": null, "TEMPORARY_": "NO", "NUMBER_OF_": 6, "NUMBER_O_1": 9, "X": 387652.46388519002, "Y": 135366.14435056999, "SE_ANNO_CA": null }, "geometry": { "type": "Point", "coordinates": [ -77.142319327105142, 38.886055780257024 ] } },
{ "type": "Feature", "properties": { "OBJECTID": 180380993, "ID": 477, "ADDRESS": "Columbia Pike & S Taylor St", "TERMINAL_N": "31923", "LATITUDE": 38.858524, "LONGITUDE": -77.103728, "INSTALLED": "YES", "LOCKED": "NO", "INSTALL_DA": null, "REMOVAL_DA": null, "TEMPORARY_": "NO", "NUMBER_OF_": 9, "NUMBER_O_1": 6, "X": 390997.00279742997, "Y": 132306.26461119001, "SE_ANNO_CA": null }, "geometry": { "type": "Point", "coordinates": [ -77.10373031312254, 38.858531776053354 ] } },
{ "type": "Feature", "properties": { "OBJECTID": 180380994, "ID": 478, "ADDRESS": "Columbus Ave & Tribeca St", "TERMINAL_N": "32068", "LATITUDE": 39.126, "LONGITUDE": -77.1673, "INSTALLED": "YES", "LOCKED": "NO", "INSTALL_DA": null, "REMOVAL_DA": null, "TEMPORARY_": "NO", "NUMBER_OF_": 4, "NUMBER_O_1": 7, "X": 385533.73779280001, "Y": 162006.94178853999, "SE_ANNO_CA": null }, "geometry": { "type": "Point", "coordinates": [ -77.167302349351004, 39.126007827544569 ] } },
{ "type": "Feature", "properties": { "OBJECTID": 180380995, "ID": 479, "ADDRESS": "Columbus Ave & Gramercy Blvd", "TERMINAL_N": "32069", "LATITUDE": 39.12333, "LONGITUDE": -77.16486, "INSTALLED": "YES", "LOCKED": "NO", "INSTALL_DA": null, "REMOVAL_DA": null, "TEMPORARY_": "NO", "NUMBER_OF_": 7, "NUMBER_O_1": 4, "X": 385744.18661456002, "Y": 161710.15281947999, "SE_ANNO_CA": null }, "geometry": { "type": "Point", "coordinates": [ -77.164862348531088, 39.123337826822556 ] } },
{ "type": "Feature", "properties": { "OBJECTID": 180380996, "ID": 480, "ADDRESS": "Reston Pkwy & Spectrum Dr", "TERMINAL_N": "32225", "LATITUDE": 38.964208, "LONGITUDE": -77.35428, "INSTALLED": "YES", "LOCKED": "NO", "INSTALL_DA": null, "REMOVAL_DA": null, "TEMPORARY_": "NO", "NUMBER_OF_": 8, "NUMBER_O_1": 7, "X": 369296.12223729998, "Y": 144092.52580132999, "SE_ANNO_CA": null }, "geometry": { "type": "Point", "coordinates": [ -77.354282397591263, 38.964215787899704 ] } },
{ "type": "Feature", "properties": { "OBJECTID": 180380997, "ID": 481, "ADDRESS": "Key West Ave & Great Seneca Hwy", "TERMINAL_N": "32070", "LATITUDE": 39.105642, "LONGITUDE": -77.20386, "INSTALLED": "YES", "LOCKED": "NO", "INSTALL_DA": null, "REMOVAL_DA": null, "TEMPORARY_": "NO", "NUMBER_OF_": 4, "NUMBER_O_1": 7, "X": 382367.38936045999, "Y": 159753.36941456, "SE_ANNO_CA": null }, "geometry": { "type": "Point", "coordinates": [ -77.203862359535464, 39.10564982207481 ] } },
{ "type": "Feature", "properties": { "OBJECTID": 180380998, "ID": 482, "ADDRESS": "Virginia Ave & 25th St NW", "TERMINAL_N": "31297", "LATITUDE": 38.8995, "LONGITUDE": -77.054155, "INSTALLED": "YES", "LOCKED": "NO", "INSTALL_DA": null, "REMOVAL_DA": null, "TEMPORARY_": "NO", "NUMBER_OF_": 11, "NUMBER_O_1": 8, "X": 395302.35335496999, "Y": 136851.19086800001, "SE_ANNO_CA": null }, "geometry": { "type": "Point", "coordinates": [ -77.054157300139252, 38.899507786107357 ] } },
{ "type": "Feature", "properties": { "OBJECTID": 180380999, "ID": 483, "ADDRESS": "15th & M St NW", "TERMINAL_N": "31298", "LATITUDE": 38.905424, "LONGITUDE": -77.034674, "INSTALLED": "YES", "LOCKED": "NO", "INSTALL_DA": null, "REMOVAL_DA": null, "TEMPORARY_": "NO", "NUMBER_OF_": 10, "NUMBER_O_1": 9, "X": 396992.47200483998, "Y": 137507.98042770999, "SE_ANNO_CA": null }, "geometry": { "type": "Point", "coordinates": [ -77.034676294722388, 38.905431788053782 ] } },
{ "type": "Feature", "properties": { "OBJECTID": 180381000, "ID": 484, "ADDRESS": "11th & Girard St NW", "TERMINAL_N": "31126", "LATITUDE": 38.925636, "LONGITUDE": -77.027112, "INSTALLED": "YES", "LOCKED": "NO", "INSTALL_DA": null, "REMOVAL_DA": null, "TEMPORARY_": "NO", "NUMBER_OF_": 5, "NUMBER_O_1": 14, "X": 397649.04555789998, "Y": 139751.45871596001, "SE_ANNO_CA": null }, "geometry": { "type": "Point", "coordinates": [ -77.027114293494435, 38.9256437920656 ] } },
{ "type": "Feature", "properties": { "OBJECTID": 180381001, "ID": 485, "ADDRESS": "Connecticut Ave & R St NW", "TERMINAL_N": "31299", "LATITUDE": 38.912644, "LONGITUDE": -77.04564, "INSTALLED": "YES", "LOCKED": "NO", "INSTALL_DA": null, "REMOVAL_DA": null, "TEMPORARY_": "NO", "NUMBER_OF_": 6, "NUMBER_O_1": 12, "X": 396041.71190714999, "Y": 138309.87791719, "SE_ANNO_CA": null }, "geometry": { "type": "Point", "coordinates": [ -77.045642298172737, 38.912651789194932 ] } },
{ "type": "Feature", "properties": { "OBJECTID": 180381002, "ID": 486, "ADDRESS": "Wilson Blvd & N Troy St", "TERMINAL_N": "31924", "LATITUDE": 38.892556, "LONGITUDE": -77.082089, "INSTALLED": "YES", "LOCKED": "NO", "INSTALL_DA": null, "REMOVAL_DA": null, "TEMPORARY_": "NO", "NUMBER_OF_": 8, "NUMBER_O_1": 7, "X": 392878.54077938001, "Y": 136082.16026187001, "SE_ANNO_CA": null }, "geometry": { "type": "Point", "coordinates": [ -77.082091308980083, 38.892563783493834 ] } },
{ "type": "Feature", "properties": { "OBJECTID": 180381003, "ID": 487, "ADDRESS": "Nebraska Ave\/AU East Campus", "TERMINAL_N": "31320", "LATITUDE": 38.936298, "LONGITUDE": -77.087128, "INSTALLED": "YES", "LOCKED": "NO", "INSTALL_DA": null, "REMOVAL_DA": null, "TEMPORARY_": "NO", "NUMBER_OF_": 0, "NUMBER_O_1": 18, "X": 392446.02744342003, "Y": 140938.28866237, "SE_ANNO_CA": null }, "geometry": { "type": "Point", "coordinates": [ -77.087130312957925, 38.936305792453702 ] } },
{ "type": "Feature", "properties": { "OBJECTID": 180381004, "ID": 488, "ADDRESS": "15th St & Constitution Ave NW", "TERMINAL_N": "31321", "LATITUDE": 38.892244, "LONGITUDE": -77.033234, "INSTALLED": "YES", "LOCKED": "NO", "INSTALL_DA": null, "REMOVAL_DA": null, "TEMPORARY_": "NO", "NUMBER_OF_": 11, "NUMBER_O_1": 8, "X": 397116.84102068999, "Y": 136044.84872030999, "SE_ANNO_CA": null }, "geometry": { "type": "Point", "coordinates": [ -77.033236293651768, 38.892251785628922 ] } },
{ "type": "Feature", "properties": { "OBJECTID": 180381005, "ID": 489, "ADDRESS": "22nd & H St NW", "TERMINAL_N": "31127", "LATITUDE": 38.899104, "LONGITUDE": -77.048946, "INSTALLED": "YES", "LOCKED": "NO", "INSTALL_DA": null, "REMOVAL_DA": null, "TEMPORARY_": "NO", "NUMBER_OF_": 6, "NUMBER_O_1": 11, "X": 395754.18167179002, "Y": 136806.97654527999, "SE_ANNO_CA": null }, "geometry": { "type": "Point", "coordinates": [ -77.048948298543124, 38.899111786313924 ] } },
{ "type": "Feature", "properties": { "OBJECTID": 180381006, "ID": 490, "ADDRESS": "23rd & M St NW", "TERMINAL_N": "31128", "LATITUDE": 38.905303, "LONGITUDE": -77.050264, "INSTALLED": "YES", "LOCKED": "NO", "INSTALL_DA": null, "REMOVAL_DA": null, "TEMPORARY_": "NO", "NUMBER_OF_": 11, "NUMBER_O_1": 8, "X": 395640.23073239002, "Y": 137495.17752962999, "SE_ANNO_CA": null }, "geometry": { "type": "Point", "coordinates": [ -77.050266299310252, 38.905310787092489 ] } },
{ "type": "Feature", "properties": { "OBJECTID": 180381007, "ID": 491, "ADDRESS": "Corporate Blvd & Omega Dr", "TERMINAL_N": "32071", "LATITUDE": 39.106971, "LONGITUDE": -77.192645, "INSTALLED": "YES", "LOCKED": "NO", "INSTALL_DA": null, "REMOVAL_DA": null, "TEMPORARY_": "NO", "NUMBER_OF_": 1, "NUMBER_O_1": 12, "X": 383337.72634013998, "Y": 159898.79852700999, "SE_ANNO_CA": null }, "geometry": { "type": "Point", "coordinates": [ -77.192647356610721, 39.106978822313835 ] } },
{ "type": "Feature", "properties": { "OBJECTID": 180381008, "ID": 492, "ADDRESS": "Key West Ave & Diamondback Dr", "TERMINAL_N": "32072", "LATITUDE": 39.106152, "LONGITUDE": -77.202354, "INSTALLED": "YES", "LOCKED": "NO", "INSTALL_DA": null, "REMOVAL_DA": null, "TEMPORARY_": "NO", "NUMBER_OF_": 2, "NUMBER_O_1": 9, "X": 382497.7741937, "Y": 159809.69600413999, "SE_ANNO_CA": null }, "geometry": { "type": "Point", "coordinates": [ -77.202356359337116, 39.106159821989571 ] } },
{ "type": "Feature", "properties": { "OBJECTID": 180381009, "ID": 493, "ADDRESS": "Alabama Ave & Stanton Rd SE \/ Shops at Park Village", "TERMINAL_N": "31813", "LATITUDE": 38.84627, "LONGITUDE": -76.98185, "INSTALLED": "YES", "LOCKED": "NO", "INSTALL_DA": null, "REMOVAL_DA": null, "TEMPORARY_": "NO", "NUMBER_OF_": 10, "NUMBER_O_1": 9, "X": 401575.58698417002, "Y": 130941.02523883, "SE_ANNO_CA": null }, "geometry": { "type": "Point", "coordinates": [ -76.981852274431233, 38.846277778096763 ] } },
{ "type": "Feature", "properties": { "OBJECTID": 180381010, "ID": 494, "ADDRESS": "Mississippi Ave & 19th St SE \/ THEARC", "TERMINAL_N": "31814", "LATITUDE": 38.84377, "LONGITUDE": -76.97557, "INSTALLED": "YES", "LOCKED": "NO", "INSTALL_DA": null, "REMOVAL_DA": null, "TEMPORARY_": "NO", "NUMBER_OF_": 11, "NUMBER_O_1": 8, "X": 402120.82301757002, "Y": 130663.63495458, "SE_ANNO_CA": null }, "geometry": { "type": "Point", "coordinates": [ -76.97557227270886, 38.843777777570843 ] } },
{ "type": "Feature", "properties": { "OBJECTID": 180381011, "ID": 495, "ADDRESS": "19th & Savannah St SE", "TERMINAL_N": "31815", "LATITUDE": 38.84623, "LONGITUDE": -76.97703, "INSTALLED": "YES", "LOCKED": "NO", "INSTALL_DA": null, "REMOVAL_DA": null, "TEMPORARY_": "NO", "NUMBER_OF_": 5, "NUMBER_O_1": 6, "X": 401994.00843862997, "Y": 130936.67919577, "SE_ANNO_CA": null }, "geometry": { "type": "Point", "coordinates": [ -76.977032273123541, 38.846237778092757 ] } },
{ "type": "Feature", "properties": { "OBJECTID": 180381012, "ID": 496, "ADDRESS": "4th St & Mississippi Ave SE", "TERMINAL_N": "31816", "LATITUDE": 38.836, "LONGITUDE": -77.0009, "INSTALLED": "YES", "LOCKED": "NO", "INSTALL_DA": null, "REMOVAL_DA": null, "TEMPORARY_": "NO", "NUMBER_OF_": 15, "NUMBER_O_1": 4, "X": 399921.86047978001, "Y": 129800.82808676, "SE_ANNO_CA": null }, "geometry": { "type": "Point", "coordinates": [ -77.000902279687168, 38.836007774995096 ] } },
{ "type": "Feature", "properties": { "OBJECTID": 180381013, "ID": 497, "ADDRESS": "1st & S Capitol St SE \/ Oxon Run Trail", "TERMINAL_N": "31817", "LATITUDE": 38.824481, "LONGITUDE": -77.005497, "INSTALLED": "YES", "LOCKED": "NO", "INSTALL_DA": null, "REMOVAL_DA": null, "TEMPORARY_": "NO", "NUMBER_OF_": 11, "NUMBER_O_1": 8, "X": 399522.66417816002, "Y": 128522.15576317, "SE_ANNO_CA": null }, "geometry": { "type": "Point", "coordinates": [ -77.005499280543347, 38.824488772597064 ] } },
{ "type": "Feature", "properties": { "OBJECTID": 180381014, "ID": 498, "ADDRESS": "Livingston Rd & 3rd St SE", "TERMINAL_N": "31818", "LATITUDE": 38.82373, "LONGITUDE": -77.00223, "INSTALLED": "YES", "LOCKED": "NO", "INSTALL_DA": null, "REMOVAL_DA": null, "TEMPORARY_": "NO", "NUMBER_OF_": 12, "NUMBER_O_1": 3, "X": 399806.35436097998, "Y": 128438.77779685, "SE_ANNO_CA": null }, "geometry": { "type": "Point", "coordinates": [ -77.00223227942692, 38.823737772826377 ] } },
{ "type": "Feature", "properties": { "OBJECTID": 180381015, "ID": 499, "ADDRESS": "Joliet St & MLK Ave SW\/Bald Eagle Rec Ctr", "TERMINAL_N": "31819", "LATITUDE": 38.81909, "LONGITUDE": -77.01033, "INSTALLED": "YES", "LOCKED": "NO", "INSTALL_DA": null, "REMOVAL_DA": null, "TEMPORARY_": "NO", "NUMBER_OF_": 10, "NUMBER_O_1": 9, "X": 399102.91954223998, "Y": 127923.75575858, "SE_ANNO_CA": null }, "geometry": { "type": "Point", "coordinates": [ -77.010332281594316, 38.819097771369528 ] } },
{ "type": "Feature", "properties": { "OBJECTID": 180381016, "ID": 500, "ADDRESS": "37th & Ely Pl SE \/ Fort Dupont Ice Arena", "TERMINAL_N": "31715", "LATITUDE": 38.883011, "LONGITUDE": -76.949709, "INSTALLED": "YES", "LOCKED": "NO", "INSTALL_DA": null, "REMOVAL_DA": null, "TEMPORARY_": "NO", "NUMBER_OF_": 7, "NUMBER_O_1": 8, "X": 404363.47443248, "Y": 135020.59106452999, "SE_ANNO_CA": null }, "geometry": { "type": "Point", "coordinates": [ -76.949711266781364, 38.883018786590526 ] } },
{ "type": "Feature", "properties": { "OBJECTID": 180381017, "ID": 501, "ADDRESS": "15th St & Pennsylvania Ave NW\/Pershing Park", "TERMINAL_N": "31129", "LATITUDE": 38.89635, "LONGITUDE": -77.03338, "INSTALLED": "YES", "LOCKED": "NO", "INSTALL_DA": null, "REMOVAL_DA": null, "TEMPORARY_": "NO", "NUMBER_OF_": 9, "NUMBER_O_1": 10, "X": 397104.34170479001, "Y": 136500.65176137001, "SE_ANNO_CA": null }, "geometry": { "type": "Point", "coordinates": [ -77.033382293908659, 38.896357786081687 ] } },
{ "type": "Feature", "properties": { "OBJECTID": 180381018, "ID": 505, "ADDRESS": "Maine Ave & 9th St SW", "TERMINAL_N": "31646", "LATITUDE": 38.88044, "LONGITUDE": -77.025236, "INSTALLED": "YES", "LOCKED": "NO", "INSTALL_DA": null, "REMOVAL_DA": null, "TEMPORARY_": "NO", "NUMBER_OF_": 7, "NUMBER_O_1": 7, "X": 397810.33161509997, "Y": 134734.29111053, "SE_ANNO_CA": null }, "geometry": { "type": "Point", "coordinates": [ -77.025238290088481, 38.880447783409032 ] } },
{ "type": "Feature", "properties": { "OBJECTID": 180381019, "ID": 506, "ADDRESS": "Lincoln Rd & Seaton Pl NE\/Harry Thomas Rec Center", "TERMINAL_N": "31523", "LATITUDE": 38.915, "LONGITUDE": -77.0078, "INSTALLED": "YES", "LOCKED": "NO", "INSTALL_DA": null, "REMOVAL_DA": null, "TEMPORARY_": "NO", "NUMBER_OF_": 7, "NUMBER_O_1": 12, "X": 399323.54012973001, "Y": 138570.45287747, "SE_ANNO_CA": null }, "geometry": { "type": "Point", "coordinates": [ -77.007802286937306, 38.915007790876317 ] } },
{ "type": "Feature", "properties": { "OBJECTID": 180380535, "ID": 2, "ADDRESS": "18th & Eads St.", "TERMINAL_N": "31001", "LATITUDE": 38.85725, "LONGITUDE": -77.05332, "INSTALLED": "YES", "LOCKED": "NO", "INSTALL_DA": null, "REMOVAL_DA": null, "TEMPORARY_": "NO", "NUMBER_OF_": 7, "NUMBER_O_1": 3, "X": 395372.04558977002, "Y": 132161.07808121, "SE_ANNO_CA": null }, "geometry": { "type": "Point", "coordinates": [ -77.053322297844844, 38.857257777383793 ] } },
{ "type": "Feature", "properties": { "OBJECTID": 180380536, "ID": 3, "ADDRESS": "20th & Crystal Dr", "TERMINAL_N": "31002", "LATITUDE": 38.856425, "LONGITUDE": -77.049232, "INSTALLED": "YES", "LOCKED": "NO", "INSTALL_DA": null, "REMOVAL_DA": null, "TEMPORARY_": "NO", "NUMBER_OF_": 9, "NUMBER_O_1": 8, "X": 395726.81757512997, "Y": 132069.29786306, "SE_ANNO_CA": null }, "geometry": { "type": "Point", "coordinates": [ -77.049234296353717, 38.856432777645772 ] } },
{ "type": "Feature", "properties": { "OBJECTID": 180380537, "ID": 4, "ADDRESS": "15th & Crystal Dr", "TERMINAL_N": "31003", "LATITUDE": 38.86017, "LONGITUDE": -77.049593, "INSTALLED": "YES", "LOCKED": "NO", "INSTALL_DA": null, "REMOVAL_DA": null, "TEMPORARY_": "NO", "NUMBER_OF_": 7, "NUMBER_O_1": 4, "X": 395695.70975939999, "Y": 132485.03678691, "SE_ANNO_CA": null }, "geometry": { "type": "Point", "coordinates": [ -77.049595296657202, 38.860177778511179 ] } },
{ "type": "Feature", "properties": { "OBJECTID": 180380538, "ID": 5, "ADDRESS": "Aurora Hills Community Ctr\/18th & Hayes St", "TERMINAL_N": "31004", "LATITUDE": 38.857866, "LONGITUDE": -77.05949, "INSTALLED": "YES", "LOCKED": "NO", "INSTALL_DA": null, "REMOVAL_DA": null, "TEMPORARY_": "NO", "NUMBER_OF_": 4, "NUMBER_O_1": 7, "X": 394836.55986471998, "Y": 132229.78939, "SE_ANNO_CA": null }, "geometry": { "type": "Point", "coordinates": [ -77.059492299370049, 38.85787377726664 ] } },
{ "type": "Feature", "properties": { "OBJECTID": 180380539, "ID": 6, "ADDRESS": "Pentagon City Metro \/ 12th & S Hayes St", "TERMINAL_N": "31005", "LATITUDE": 38.862303, "LONGITUDE": -77.059936, "INSTALLED": "YES", "LOCKED": "NO", "INSTALL_DA": null, "REMOVAL_DA": null, "TEMPORARY_": "NO", "NUMBER_OF_": 6, "NUMBER_O_1": 13, "X": 394798.17263783998, "Y": 132722.3537753, "SE_ANNO_CA": null }, "geometry": { "type": "Point", "coordinates": [ -77.0599383000459, 38.862310778097516 ] } },
{ "type": "Feature", "properties": { "OBJECTID": 180380540, "ID": 7, "ADDRESS": "S Joyce & Army Navy Dr", "TERMINAL_N": "31006", "LATITUDE": 38.8637, "LONGITUDE": -77.0633, "INSTALLED": "YES", "LOCKED": "NO", "INSTALL_DA": null, "REMOVAL_DA": null, "TEMPORARY_": "NO", "NUMBER_OF_": 6, "NUMBER_O_1": 9, "X": 394506.31966948998, "Y": 132877.62800883999, "SE_ANNO_CA": null }, "geometry": { "type": "Point", "coordinates": [ -77.063302300822912, 38.863707778402365 ] } },
{ "type": "Feature", "properties": { "OBJECTID": 180380541, "ID": 8, "ADDRESS": "Crystal City Metro \/ 18th & Bell St", "TERMINAL_N": "31007", "LATITUDE": 38.857405, "LONGITUDE": -77.051132, "INSTALLED": "YES", "LOCKED": "NO", "INSTALL_DA": null, "REMOVAL_DA": null, "TEMPORARY_": "NO", "NUMBER_OF_": 15, "NUMBER_O_1": 3, "X": 395561.96451388003, "Y": 132178.17554745, "SE_ANNO_CA": null }, "geometry": { "type": "Point", "coordinates": [ -77.051134297019217, 38.857412777800768 ] } },
{ "type": "Feature", "properties": { "OBJECTID": 180380542, "ID": 9, "ADDRESS": "12th & Army Navy Dr", "TERMINAL_N": "31008", "LATITUDE": 38.8629, "LONGITUDE": -77.0528, "INSTALLED": "YES", "LOCKED": "NO", "INSTALL_DA": null, "REMOVAL_DA": null, "TEMPORARY_": "NO", "NUMBER_OF_": 4, "NUMBER_O_1": 7, "X": 395417.54218217998, "Y": 132788.24270087, "SE_ANNO_CA": null }, "geometry": { "type": "Point", "coordinates": [ -77.052802297652065, 38.862907778591634 ] } },
{ "type": "Feature", "properties": { "OBJECTID": 180380543, "ID": 10, "ADDRESS": "27th & Crystal Dr", "TERMINAL_N": "31009", "LATITUDE": 38.848441, "LONGITUDE": -77.051516, "INSTALLED": "YES", "LOCKED": "NO", "INSTALL_DA": null, "REMOVAL_DA": null, "TEMPORARY_": "NO", "NUMBER_OF_": 6, "NUMBER_O_1": 12, "X": 395528.07344805001, "Y": 131183.12664229999, "SE_ANNO_CA": null }, "geometry": { "type": "Point", "coordinates": [ -77.051518296553724, 38.848448775685739 ] } },
{ "type": "Feature", "properties": { "OBJECTID": 180380544, "ID": 11, "ADDRESS": "S Glebe & Potomac Ave", "TERMINAL_N": "31010", "LATITUDE": 38.8426, "LONGITUDE": -77.0502, "INSTALLED": "YES", "LOCKED": "NO", "INSTALL_DA": null, "REMOVAL_DA": null, "TEMPORARY_": "NO", "NUMBER_OF_": 6, "NUMBER_O_1": 4, "X": 395641.95431057003, "Y": 130534.67130912001, "SE_ANNO_CA": null }, "geometry": { "type": "Point", "coordinates": [ -77.050202295644624, 38.8426077747419 ] } },
{ "type": "Feature", "properties": { "OBJECTID": 180380545, "ID": 12, "ADDRESS": "23rd & Crystal Dr", "TERMINAL_N": "31011", "LATITUDE": 38.8533, "LONGITUDE": -77.0498, "INSTALLED": "YES", "LOCKED": "NO", "INSTALL_DA": null, "REMOVAL_DA": null, "TEMPORARY_": "NO", "NUMBER_OF_": 12, "NUMBER_O_1": 5, "X": 395677.32772971998, "Y": 131722.42730273001, "SE_ANNO_CA": null }, "geometry": { "type": "Point", "coordinates": [ -77.049802295960845, 38.853307776974425 ] } },
{ "type": "Feature", "properties": { "OBJECTID": 180380546, "ID": 13, "ADDRESS": "26th & S Clark St", "TERMINAL_N": "31012", "LATITUDE": 38.850688, "LONGITUDE": -77.05152, "INSTALLED": "YES", "LOCKED": "NO", "INSTALL_DA": null, "REMOVAL_DA": null, "TEMPORARY_": "NO", "NUMBER_OF_": 5, "NUMBER_O_1": 6, "X": 395527.86699294002, "Y": 131432.55965392001, "SE_ANNO_CA": null }, "geometry": { "type": "Point", "coordinates": [ -77.051522296488912, 38.850695776034591 ] } },
{ "type": "Feature", "properties": { "OBJECTID": 180380547, "ID": 14, "ADDRESS": "19th St & Pennsylvania Ave NW", "TERMINAL_N": "31100", "LATITUDE": 38.9003, "LONGITUDE": -77.0429, "INSTALLED": "YES", "LOCKED": "NO", "INSTALL_DA": null, "REMOVAL_DA": null, "TEMPORARY_": "NO", "NUMBER_OF_": 2, "NUMBER_O_1": 13, "X": 396278.70399051998, "Y": 136939.47827918999, "SE_ANNO_CA": null }, "geometry": { "type": "Point", "coordinates": [ -77.042902296805394, 38.900307786362575 ] } },
{ "type": "Feature", "properties": { "OBJECTID": 180380548, "ID": 15, "ADDRESS": "14th & V St NW", "TERMINAL_N": "31101", "LATITUDE": 38.9176, "LONGITUDE": -77.0321, "INSTALLED": "YES", "LOCKED": "NO", "INSTALL_DA": null, "REMOVAL_DA": null, "TEMPORARY_": "NO", "NUMBER_OF_": 17, "NUMBER_O_1": 10, "X": 397216.20899969002, "Y": 138859.53510936, "SE_ANNO_CA": null }, "geometry": { "type": "Point", "coordinates": [ -77.032102294605906, 38.917607790657122 ] } },
{ "type": "Feature", "properties": { "OBJECTID": 180380549, "ID": 16, "ADDRESS": "11th & Kenyon St NW", "TERMINAL_N": "31102", "LATITUDE": 38.929464, "LONGITUDE": -77.027822, "INSTALLED": "YES", "LOCKED": "NO", "INSTALL_DA": null, "REMOVAL_DA": null, "TEMPORARY_": "NO", "NUMBER_OF_": 18, "NUMBER_O_1": 9, "X": 397587.60905934998, "Y": 140176.41805132999, "SE_ANNO_CA": null }, "geometry": { "type": "Point", "coordinates": [ -77.027824293966603, 38.929471793167579 ] } },
{ "type": "Feature", "properties": { "OBJECTID": 180380550, "ID": 17, "ADDRESS": "16th & Harvard St NW", "TERMINAL_N": "31103", "LATITUDE": 38.926088, "LONGITUDE": -77.036536, "INSTALLED": "YES", "LOCKED": "NO", "INSTALL_DA": null, "REMOVAL_DA": null, "TEMPORARY_": "NO", "NUMBER_OF_": 14, "NUMBER_O_1": 19, "X": 396831.88529020001, "Y": 139801.91944917999, "SE_ANNO_CA": null }, "geometry": { "type": "Point", "coordinates": [ -77.036538296252942, 38.926095791956222 ] } },
{ "type": "Feature", "properties": { "OBJECTID": 180380551, "ID": 18, "ADDRESS": "Adams Mill & Columbia Rd NW", "TERMINAL_N": "31104", "LATITUDE": 38.922925, "LONGITUDE": -77.042581, "INSTALLED": "YES", "LOCKED": "NO", "INSTALL_DA": null, "REMOVAL_DA": null, "TEMPORARY_": "NO", "NUMBER_OF_": 7, "NUMBER_O_1": 6, "X": 396307.54666751, "Y": 139451.02670294, "SE_ANNO_CA": null }, "geometry": { "type": "Point", "coordinates": [ -77.042583297968392, 38.92293279105921 ] } },
{ "type": "Feature", "properties": { "OBJECTID": 180380552, "ID": 19, "ADDRESS": "14th & Harvard St NW", "TERMINAL_N": "31105", "LATITUDE": 38.9268, "LONGITUDE": -77.0322, "INSTALLED": "YES", "LOCKED": "NO", "INSTALL_DA": null, "REMOVAL_DA": null, "TEMPORARY_": "NO", "NUMBER_OF_": 17, "NUMBER_O_1": 2, "X": 397207.89698711998, "Y": 139880.81598519001, "SE_ANNO_CA": null }, "geometry": { "type": "Point", "coordinates": [ -77.03220229505483, 38.926807792500078 ] } },
{ "type": "Feature", "properties": { "OBJECTID": 180380553, "ID": 20, "ADDRESS": "Calvert & Biltmore St NW", "TERMINAL_N": "31106", "LATITUDE": 38.923203, "LONGITUDE": -77.047637, "INSTALLED": "YES", "LOCKED": "NO", "INSTALL_DA": null, "REMOVAL_DA": null, "TEMPORARY_": "NO", "NUMBER_OF_": 3, "NUMBER_O_1": 20, "X": 395869.12679180998, "Y": 139482.10370447999, "SE_ANNO_CA": null }, "geometry": { "type": "Point", "coordinates": [ -77.047639299551733, 38.923210790912535 ] } },
{ "type": "Feature", "properties": { "OBJECTID": 180380554, "ID": 21, "ADDRESS": "Lamont & Mt Pleasant NW", "TERMINAL_N": "31107", "LATITUDE": 38.9319, "LONGITUDE": -77.0388, "INSTALLED": "YES", "LOCKED": "NO", "INSTALL_DA": null, "REMOVAL_DA": null, "TEMPORARY_": "NO", "NUMBER_OF_": 5, "NUMBER_O_1": 14, "X": 396635.84323825, "Y": 140447.18241804, "SE_ANNO_CA": null }, "geometry": { "type": "Point", "coordinates": [ -77.038802297435453, 38.93190779332317 ] } },
{ "type": "Feature", "properties": { "OBJECTID": 180380555, "ID": 22, "ADDRESS": "4th & M St SW", "TERMINAL_N": "31108", "LATITUDE": 38.8767, "LONGITUDE": -77.0178, "INSTALLED": "YES", "LOCKED": "NO", "INSTALL_DA": null, "REMOVAL_DA": null, "TEMPORARY_": "NO", "NUMBER_OF_": 11, "NUMBER_O_1": 10, "X": 398455.45488951, "Y": 134318.97061928001, "SE_ANNO_CA": null }, "geometry": { "type": "Point", "coordinates": [ -77.017802287826484, 38.876707782852591 ] } },
{ "type": "Feature", "properties": { "OBJECTID": 180380556, "ID": 23, "ADDRESS": "15th & P St NW", "TERMINAL_N": "31201", "LATITUDE": 38.90985, "LONGITUDE": -77.034438, "INSTALLED": "YES", "LOCKED": "NO", "INSTALL_DA": null, "REMOVAL_DA": null, "TEMPORARY_": "NO", "NUMBER_OF_": 5, "NUMBER_O_1": 14, "X": 397013.12734698999, "Y": 137999.29479921999, "SE_ANNO_CA": null }, "geometry": { "type": "Point", "coordinates": [ -77.034440294540744, 38.909857788986429 ] } },
{ "type": "Feature", "properties": { "OBJECTID": 180380557, "ID": 24, "ADDRESS": "14th & R St NW", "TERMINAL_N": "31202", "LATITUDE": 38.912939, "LONGITUDE": -77.032085, "INSTALLED": "YES", "LOCKED": "NO", "INSTALL_DA": null, "REMOVAL_DA": null, "TEMPORARY_": "NO", "NUMBER_OF_": 14, "NUMBER_O_1": 5, "X": 397217.32798349002, "Y": 138342.12488813, "SE_ANNO_CA": null }, "geometry": { "type": "Point", "coordinates": [ -77.032087294129397, 38.91294678945895 ] } },
{ "type": "Feature", "properties": { "OBJECTID": 180380558, "ID": 25, "ADDRESS": "14th & Rhode Island Ave NW", "TERMINAL_N": "31203", "LATITUDE": 38.9086, "LONGITUDE": -77.0323, "INSTALLED": "YES", "LOCKED": "NO", "INSTALL_DA": null, "REMOVAL_DA": null, "TEMPORARY_": "NO", "NUMBER_OF_": 19, "NUMBER_O_1": 4, "X": 397198.51101234998, "Y": 137860.46677503001, "SE_ANNO_CA": null }, "geometry": { "type": "Point", "coordinates": [ -77.032302294263786, 38.90860778846897 ] } },
{ "type": "Feature", "properties": { "OBJECTID": 180380559, "ID": 26, "ADDRESS": "20th & E St NW", "TERMINAL_N": "31204", "LATITUDE": 38.8963, "LONGITUDE": -77.045, "INSTALLED": "YES", "LOCKED": "NO", "INSTALL_DA": null, "REMOVAL_DA": null, "TEMPORARY_": "NO", "NUMBER_OF_": 8, "NUMBER_O_1": 7, "X": 396096.32377953001, "Y": 136495.53410413, "SE_ANNO_CA": null }, "geometry": { "type": "Point", "coordinates": [ -77.045002297664695, 38.896307785928414 ] } },
{ "type": "Feature", "properties": { "OBJECTID": 180380560, "ID": 27, "ADDRESS": "21st & I St NW", "TERMINAL_N": "31205", "LATITUDE": 38.9008, "LONGITUDE": -77.047, "INSTALLED": "YES", "LOCKED": "NO", "INSTALL_DA": null, "REMOVAL_DA": null, "TEMPORARY_": "NO", "NUMBER_OF_": 13, "NUMBER_O_1": 20, "X": 395923.08426032, "Y": 136995.15740473999, "SE_ANNO_CA": null }, "geometry": { "type": "Point", "coordinates": [ -77.047002298340672, 38.9008077863054 ] } },
{ "type": "Feature", "properties": { "OBJECTID": 180380561, "ID": 28, "ADDRESS": "Georgia & New Hampshire Ave NW", "TERMINAL_N": "31400", "LATITUDE": 38.936043, "LONGITUDE": -77.024649, "INSTALLED": "YES", "LOCKED": "NO", "INSTALL_DA": null, "REMOVAL_DA": null, "TEMPORARY_": "NO", "NUMBER_OF_": 8, "NUMBER_O_1": 7, "X": 397862.93084314, "Y": 140906.66509731, "SE_ANNO_CA": null }, "geometry": { "type": "Point", "coordinates": [ -77.024651293770731, 38.936050794760341 ] } },
{ "type": "Feature", "properties": { "OBJECTID": 180380562, "ID": 29, "ADDRESS": "14th St & Spring Rd NW", "TERMINAL_N": "31401", "LATITUDE": 38.9375, "LONGITUDE": -77.0328, "INSTALLED": "YES", "LOCKED": "NO", "INSTALL_DA": null, "REMOVAL_DA": null, "TEMPORARY_": "NO", "NUMBER_OF_": 8, "NUMBER_O_1": 11, "X": 397156.29699960002, "Y": 141068.62722970001, "SE_ANNO_CA": null }, "geometry": { "type": "Point", "coordinates": [ -77.0328022960406, 38.937507794683093 ] } },
{ "type": "Feature", "properties": { "OBJECTID": 180380563, "ID": 30, "ADDRESS": "John McCormack Dr & Michigan Ave NE", "TERMINAL_N": "31502", "LATITUDE": 38.9346, "LONGITUDE": -76.9955, "INSTALLED": "YES", "LOCKED": "NO", "INSTALL_DA": null, "REMOVAL_DA": null, "TEMPORARY_": "NO", "NUMBER_OF_": 5, "NUMBER_O_1": 6, "X": 400390.15805724001, "Y": 140746.20058549999, "SE_ANNO_CA": null }, "geometry": { "type": "Point", "coordinates": [ -76.995502284188831, 38.934607795100703 ] } },
{ "type": "Feature", "properties": { "OBJECTID": 180380564, "ID": 31, "ADDRESS": "5th & K St NW", "TERMINAL_N": "31600", "LATITUDE": 38.90304, "LONGITUDE": -77.019027, "INSTALLED": "YES", "LOCKED": "NO", "INSTALL_DA": null, "REMOVAL_DA": null, "TEMPORARY_": "NO", "NUMBER_OF_": 10, "NUMBER_O_1": 8, "X": 398349.59483464999, "Y": 137242.93793811, "SE_ANNO_CA": null }, "geometry": { "type": "Point", "coordinates": [ -77.019029289904012, 38.903047788063013 ] } },
{ "type": "Feature", "properties": { "OBJECTID": 180380565, "ID": 32, "ADDRESS": "19th & East Capitol St SE", "TERMINAL_N": "31601", "LATITUDE": 38.8896, "LONGITUDE": -76.9769, "INSTALLED": "YES", "LOCKED": "NO", "INSTALL_DA": null, "REMOVAL_DA": null, "TEMPORARY_": "NO", "NUMBER_OF_": 7, "NUMBER_O_1": 7, "X": 402004.07538838999, "Y": 135751.07274551, "SE_ANNO_CA": null }, "geometry": { "type": "Point", "coordinates": [ -76.97690227586375, 38.889607786967474 ] } },
{ "type": "Feature", "properties": { "OBJECTID": 180380566, "ID": 33, "ADDRESS": "Park Rd & Holmead Pl NW", "TERMINAL_N": "31602", "LATITUDE": 38.9308, "LONGITUDE": -77.0315, "INSTALLED": "YES", "LOCKED": "NO", "INSTALL_DA": null, "REMOVAL_DA": null, "TEMPORARY_": "NO", "NUMBER_OF_": 6, "NUMBER_O_1": 13, "X": 397268.74809473002, "Y": 140324.82919203001, "SE_ANNO_CA": null }, "geometry": { "type": "Point", "coordinates": [ -77.031502294880895, 38.930807793158159 ] } },
{ "type": "Feature", "properties": { "OBJECTID": 180380567, "ID": 34, "ADDRESS": "Good Hope & Naylor Rd SE", "TERMINAL_N": "31700", "LATITUDE": 38.8601, "LONGITUDE": -76.9672, "INSTALLED": "YES", "LOCKED": "NO", "INSTALL_DA": null, "REMOVAL_DA": null, "TEMPORARY_": "NO", "NUMBER_OF_": 2, "NUMBER_O_1": 9, "X": 402846.79011673998, "Y": 132476.60854073, "SE_ANNO_CA": null }, "geometry": { "type": "Point", "coordinates": [ -76.967202270797571, 38.860107781529706 ] } },
{ "type": "Feature", "properties": { "OBJECTID": 180380568, "ID": 35, "ADDRESS": "Connecticut Ave & Newark St NW \/ Cleveland Park", "TERMINAL_N": "31305", "LATITUDE": 38.934267, "LONGITUDE": -77.057979, "INSTALLED": "YES", "LOCKED": "NO", "INSTALL_DA": null, "REMOVAL_DA": null, "TEMPORARY_": "NO", "NUMBER_OF_": 4, "NUMBER_O_1": 7, "X": 394973.09374684998, "Y": 140710.82140543999, "SE_ANNO_CA": null }, "geometry": { "type": "Point", "coordinates": [ -77.057981303651985, 38.934274792634035 ] } },
{ "type": "Feature", "properties": { "OBJECTID": 180380569, "ID": 36, "ADDRESS": "Randle Circle & Minnesota Ave SE", "TERMINAL_N": "31702", "LATITUDE": 38.878, "LONGITUDE": -76.9607, "INSTALLED": "YES", "LOCKED": "NO", "INSTALL_DA": null, "REMOVAL_DA": null, "TEMPORARY_": "NO", "NUMBER_OF_": 7, "NUMBER_O_1": 4, "X": 403410.08514111, "Y": 134463.86390982999, "SE_ANNO_CA": null }, "geometry": { "type": "Point", "coordinates": [ -76.960702270143003, 38.878007785438143 ] } },
{ "type": "Feature", "properties": { "OBJECTID": 180380570, "ID": 37, "ADDRESS": "Minnesota Ave Metro\/DOES", "TERMINAL_N": "31703", "LATITUDE": 38.897063, "LONGITUDE": -76.947446, "INSTALLED": "YES", "LOCKED": "NO", "INSTALL_DA": null, "REMOVAL_DA": null, "TEMPORARY_": "NO", "NUMBER_OF_": 9, "NUMBER_O_1": 5, "X": 404558.92450764001, "Y": 136580.58329246999, "SE_ANNO_CA": null }, "geometry": { "type": "Point", "coordinates": [ -76.947448267077661, 38.897070789709019 ] } },
{ "type": "Feature", "properties": { "OBJECTID": 180380571, "ID": 38, "ADDRESS": "Nannie Helen Burroughs & Minnesota Ave NE", "TERMINAL_N": "31704", "LATITUDE": 38.901385, "LONGITUDE": -76.941877, "INSTALLED": "YES", "LOCKED": "NO", "INSTALL_DA": null, "REMOVAL_DA": null, "TEMPORARY_": "NO", "NUMBER_OF_": 7, "NUMBER_O_1": 4, "X": 405041.71541905002, "Y": 137060.65262358001, "SE_ANNO_CA": null }, "geometry": { "type": "Point", "coordinates": [ -76.941879265305346, 38.901392790620264 ] } },
{ "type": "Feature", "properties": { "OBJECTID": 180380572, "ID": 39, "ADDRESS": "Anacostia Metro", "TERMINAL_N": "31801", "LATITUDE": 38.862669, "LONGITUDE": -76.994637, "INSTALLED": "YES", "LOCKED": "NO", "INSTALL_DA": null, "REMOVAL_DA": null, "TEMPORARY_": "NO", "NUMBER_OF_": 3, "NUMBER_O_1": 4, "X": 400465.45079874003, "Y": 132761.28847182001, "SE_ANNO_CA": null }, "geometry": { "type": "Point", "coordinates": [ -76.994639279433954, 38.862676781085646 ] } },
{ "type": "Feature", "properties": { "OBJECTID": 180380573, "ID": 40, "ADDRESS": "Good Hope Rd & MLK Ave SE", "TERMINAL_N": "31802", "LATITUDE": 38.867373, "LONGITUDE": -76.988039, "INSTALLED": "YES", "LOCKED": "NO", "INSTALL_DA": null, "REMOVAL_DA": null, "TEMPORARY_": "NO", "NUMBER_OF_": 3, "NUMBER_O_1": 8, "X": 401038.01791260001, "Y": 133283.52133563001, "SE_ANNO_CA": null }, "geometry": { "type": "Point", "coordinates": [ -76.988041277537519, 38.86738078181849 ] } },
{ "type": "Feature", "properties": { "OBJECTID": 180380574, "ID": 41, "ADDRESS": "19th & E Street NW", "TERMINAL_N": "31206", "LATITUDE": 38.8952, "LONGITUDE": -77.0436, "INSTALLED": "YES", "LOCKED": "NO", "INSTALL_DA": null, "REMOVAL_DA": null, "TEMPORARY_": "NO", "NUMBER_OF_": 5, "NUMBER_O_1": 6, "X": 396217.71315483999, "Y": 136373.36645763001, "SE_ANNO_CA": null }, "geometry": { "type": "Point", "coordinates": [ -77.043602297165037, 38.895207785389552 ] } },
{ "type": "Feature", "properties": { "OBJECTID": 180380575, "ID": 42, "ADDRESS": "4th & W St NE", "TERMINAL_N": "31500", "LATITUDE": 38.919077, "LONGITUDE": -77.000648, "INSTALLED": "YES", "LOCKED": "NO", "INSTALL_DA": null, "REMOVAL_DA": null, "TEMPORARY_": "NO", "NUMBER_OF_": 4, "NUMBER_O_1": 11, "X": 399943.80500792002, "Y": 139023.00525965, "SE_ANNO_CA": null }, "geometry": { "type": "Point", "coordinates": [ -77.000650284995587, 38.919084791900247 ] } },
{ "type": "Feature", "properties": { "OBJECTID": 180380576, "ID": 43, "ADDRESS": "10th & U St NW", "TERMINAL_N": "31111", "LATITUDE": 38.9172, "LONGITUDE": -77.0259, "INSTALLED": "YES", "LOCKED": "NO", "INSTALL_DA": null, "REMOVAL_DA": null, "TEMPORARY_": "NO", "NUMBER_OF_": 6, "NUMBER_O_1": 8, "X": 397753.87564421998, "Y": 138814.96095752, "SE_ANNO_CA": null }, "geometry": { "type": "Point", "coordinates": [ -77.025902292875827, 38.917207790486522 ] } },
{ "type": "Feature", "properties": { "OBJECTID": 180380577, "ID": 44, "ADDRESS": "Georgia Ave and Fairmont St NW", "TERMINAL_N": "31207", "LATITUDE": 38.9249, "LONGITUDE": -77.0222, "INSTALLED": "YES", "LOCKED": "NO", "INSTALL_DA": null, "REMOVAL_DA": null, "TEMPORARY_": "NO", "NUMBER_OF_": 3, "NUMBER_O_1": 8, "X": 398074.95841142, "Y": 139669.64140128999, "SE_ANNO_CA": null }, "geometry": { "type": "Point", "coordinates": [ -77.022202291671874, 38.924907792120194 ] } },
{ "type": "Feature", "properties": { "OBJECTID": 180380578, "ID": 45, "ADDRESS": "1st & N St  SE", "TERMINAL_N": "31209", "LATITUDE": 38.8743, "LONGITUDE": -77.0057, "INSTALLED": "YES", "LOCKED": "NO", "INSTALL_DA": null, "REMOVAL_DA": null, "TEMPORARY_": "NO", "NUMBER_OF_": 13, "NUMBER_O_1": 26, "X": 399505.38183804997, "Y": 134052.41738498001, "SE_ANNO_CA": null }, "geometry": { "type": "Point", "coordinates": [ -77.005702284040026, 38.874307782677654 ] } },
{ "type": "Feature", "properties": { "OBJECTID": 180380579, "ID": 46, "ADDRESS": "20th St & Florida Ave NW", "TERMINAL_N": "31110", "LATITUDE": 38.9154, "LONGITUDE": -77.0446, "INSTALLED": "YES", "LOCKED": "NO", "INSTALL_DA": null, "REMOVAL_DA": null, "TEMPORARY_": "NO", "NUMBER_OF_": 2, "NUMBER_O_1": 13, "X": 396132.05899493, "Y": 138615.77216932, "SE_ANNO_CA": null }, "geometry": { "type": "Point", "coordinates": [ -77.044602298309002, 38.915407789769951 ] } },
{ "type": "Feature", "properties": { "OBJECTID": 180380534, "ID": 1, "ADDRESS": "Eads St & 15th St S", "TERMINAL_N": "31000", "LATITUDE": 38.858971, "LONGITUDE": -77.05323, "INSTALLED": "YES", "LOCKED": "NO", "INSTALL_DA": null, "REMOVAL_DA": null, "TEMPORARY_": "NO", "NUMBER_OF_": 9, "NUMBER_O_1": 6, "X": 395379.96861158998, "Y": 132352.11690319001, "SE_ANNO_CA": null }, "geometry": { "type": "Point", "coordinates": [ -77.053232297452936, 38.858978777649291 ] } },
{ "type": "Feature", "properties": { "OBJECTID": 180380580, "ID": 47, "ADDRESS": "7th & T St NW", "TERMINAL_N": "31109", "LATITUDE": 38.9155, "LONGITUDE": -77.0222, "INSTALLED": "YES", "LOCKED": "NO", "INSTALL_DA": null, "REMOVAL_DA": null, "TEMPORARY_": "NO", "NUMBER_OF_": 6, "NUMBER_O_1": 9, "X": 398074.70465287002, "Y": 138626.16224102999, "SE_ANNO_CA": null }, "geometry": { "type": "Point", "coordinates": [ -77.022202291719367, 38.915507790543039 ] } },